[
  {
    "Name":"Amen Drug stor",
    "Latitude":7.1969834,
    "Longitude":35.4213007
  },
  {
    "Name":"Ashu Drug stor",
    "Latitude":7.2043363,
    "Longitude":35.4104946
  },
  {
    "Name":"Buzayehu Drug stor",
    "Latitude":7.1963467,
    "Longitude":35.4257616
  },
  {
    "Name":"Fraol Drug stor",
    "Latitude":7.196514,
    "Longitude":35.4253695
  },
  {
    "Name":"Masresha Drug Stor",
    "Latitude":7.1963097,
    "Longitude":35.4257297
  },
  {
    "Name":"`Mahiderekal Pharmacy no2",
    "Latitude":8.7508396,
    "Longitude":38.9861577
  },
  {
    "Name":"22 Pharmacy",
    "Latitude":9.0145924,
    "Longitude":38.7836558
  },
  {
    "Name":"23 Druge Store",
    "Latitude":8.9774198,
    "Longitude":38.8852296
  },
  {
    "Name":"3M Sisters Pharmacy",
    "Latitude":9.0043939,
    "Longitude":38.6767255
  },
  {
    "Name":"4 Killo Pharmacy",
    "Latitude":9.0331833,
    "Longitude":38.7618295
  },
  {
    "Name":"41 Eyesus Pharmacy",
    "Latitude":9.0653331,
    "Longitude":38.7717349
  },
  {
    "Name":"49 Pharmacy",
    "Latitude":9.0109198,
    "Longitude":38.8902895
  },
  {
    "Name":"6 Killo Anba Gibi pharmcy",
    "Latitude":9.0414697,
    "Longitude":38.7622515
  },
  {
    "Name":"70Kare Pharmacy",
    "Latitude":13.4697504,
    "Longitude":39.4512503
  },
  {
    "Name":"A B M Drug Store",
    "Latitude":10.0601177,
    "Longitude":34.5474414
  },
  {
    "Name":"A S K Pharmacy",
    "Latitude":9.027604,
    "Longitude":38.7151017
  },
  {
    "Name":"A.B pharmacy",
    "Latitude":9.014974,
    "Longitude":38.7831028
  },
  {
    "Name":"A\/rehman Drug Store",
    "Latitude":7.7909483,
    "Longitude":38.2483767
  },
  {
    "Name":"AaBET Hospital Community Pharmacy",
    "Latitude":9.0400608,
    "Longitude":38.7435583
  },
  {
    "Name":"Aafi Drug Store",
    "Latitude":9.3431235,
    "Longitude":42.820825
  },
  {
    "Name":"Aage Drug Store",
    "Latitude":7.6847121,
    "Longitude":36.8496766
  },
  {
    "Name":"Aao Druge Store",
    "Latitude":8.7110923,
    "Longitude":40.7333739
  },
  {
    "Name":"Ab Pharmacy",
    "Latitude":9.0424507,
    "Longitude":38.7452001
  },
  {
    "Name":"Aba bora drug store",
    "Latitude":8.36093,
    "Longitude":36.12184333
  },
  {
    "Name":"Aba Gada Drug store",
    "Latitude":9.0845983,
    "Longitude":40.8673256
  },
  {
    "Name":"Aba Machu Drug Store 2",
    "Latitude":5.4780232,
    "Longitude":37.8664715
  },
  {
    "Name":"Aba Musa Drug Store",
    "Latitude":9.1385439,
    "Longitude":41.8332176
  },
  {
    "Name":"Aba Salam Drug Store",
    "Latitude":7.6685663,
    "Longitude":36.8486674
  },
  {
    "Name":"Aba Woldetinsae Drug Store",
    "Latitude":8.9494743,
    "Longitude":38.7775447
  },
  {
    "Name":"Ababoka Drug Store",
    "Latitude":7.8556845,
    "Longitude":36.5871154
  },
  {
    "Name":"Abade Drug Store",
    "Latitude":9.3521222,
    "Longitude":42.7852674
  },
  {
    "Name":"Abadi Drug shop",
    "Latitude":12.9361396,
    "Longitude":39.5179848
  },
  {
    "Name":"Abadi Gebremedhin Drug Stor",
    "Latitude":13.2898278,
    "Longitude":38.994337
  },
  {
    "Name":"Abadir Drug Store",
    "Latitude":8.81394,
    "Longitude":40.5205483
  },
  {
    "Name":"Abadir Drug Store",
    "Latitude":8.9026531,
    "Longitude":40.7787184
  },
  {
    "Name":"Abadir Druge Store",
    "Latitude":8.949021,
    "Longitude":40.5552195
  },
  {
    "Name":"Abadir N0 2 Pharmacy",
    "Latitude":8.9897726,
    "Longitude":38.7824566
  },
  {
    "Name":"Abadir No 1 Pharmacy",
    "Latitude":8.99262,
    "Longitude":38.7814018
  },
  {
    "Name":"Abadir No 3 Pharmacy",
    "Latitude":8.9499777,
    "Longitude":38.7192879
  },
  {
    "Name":"Abadir Pharmacy",
    "Latitude":9.3108937,
    "Longitude":42.1276486
  },
  {
    "Name":"Abado Drug Store",
    "Latitude":9.0656665,
    "Longitude":38.8679952
  },
  {
    "Name":"Abageda Drugstore",
    "Latitude":7.6034633,
    "Longitude":36.724055
  },
  {
    "Name":"Abagia Pharmacy",
    "Latitude":9.3517567,
    "Longitude":42.7803499
  },
  {
    "Name":"Abajifar Drugstore",
    "Latitude":8.0882385,
    "Longitude":36.952714
  },
  {
    "Name":"Abamachu Drug Store",
    "Latitude":5.4835777,
    "Longitude":37.8614321
  },
  {
    "Name":"Abasar Drug Store",
    "Latitude":9.2309034,
    "Longitude":42.5559575
  },
  {
    "Name":"Abate Astatke Drug Store",
    "Latitude":9.3291063,
    "Longitude":39.2920792
  },
  {
    "Name":"Abate Drug Store",
    "Latitude":9.9126612,
    "Longitude":40.015647
  },
  {
    "Name":"Abay Drug Shop",
    "Latitude":12.7990162,
    "Longitude":39.64596
  },
  {
    "Name":"Abay Drug Store",
    "Latitude":11.2218604,
    "Longitude":39.6494501
  },
  {
    "Name":"Abay Drug Store",
    "Latitude":11.3691394,
    "Longitude":37.0397706
  },
  {
    "Name":"Abay Drug Store",
    "Latitude":11.6049249,
    "Longitude":37.4194733
  },
  {
    "Name":"Abay Drug store",
    "Latitude":9.3512264,
    "Longitude":42.7983861
  },
  {
    "Name":"Abay Drug Store",
    "Latitude":6.4579294,
    "Longitude":42.1391093
  },
  {
    "Name":"Abay Drug Store",
    "Latitude":11.2694797,
    "Longitude":35.2865246
  },
  {
    "Name":"Abay Drug Store",
    "Latitude":10.601948,
    "Longitude":36.0825047
  },
  {
    "Name":"Abay Drug Store",
    "Latitude":7.5448479,
    "Longitude":37.8502764
  },
  {
    "Name":"Abay Drug Store",
    "Latitude":7.3117419,
    "Longitude":38.090477
  },
  {
    "Name":"Abay No 2 Drug Store",
    "Latitude":11.1380439,
    "Longitude":39.6328805
  },
  {
    "Name":"Abay Pharmacy",
    "Latitude":9.5830939,
    "Longitude":41.8636874
  },
  {
    "Name":"Abay Pharmacy",
    "Latitude":7.0217104,
    "Longitude":38.4970757
  },
  {
    "Name":"Abay Yilak Drug Store",
    "Latitude":13.8726772,
    "Longitude":39.736614
  },
  {
    "Name":"Abaya drug store",
    "Latitude":6.0349043,
    "Longitude":37.5528237
  },
  {
    "Name":"Abaya Drug Store",
    "Latitude":6.751067,
    "Longitude":38.3766404
  },
  {
    "Name":"Abaye Drug Store",
    "Latitude":10.6979567,
    "Longitude":39.7835755
  },
  {
    "Name":"Abaye Drug store",
    "Latitude":8.0650722,
    "Longitude":38.4732636
  },
  {
    "Name":"Abaye Pharmacy",
    "Latitude":11.9255287,
    "Longitude":37.6962315
  },
  {
    "Name":"Abayineh Alemayehu Drug Store",
    "Latitude":6.374794,
    "Longitude":38.9545615
  },
  {
    "Name":"Abayinesh Drug Store",
    "Latitude":11.4606265,
    "Longitude":38.9128264
  },
  {
    "Name":"Abayneh Azene Drug Store",
    "Latitude":10.1577055,
    "Longitude":37.7491795
  },
  {
    "Name":"Abaynesh Drug Store",
    "Latitude":11.6882823,
    "Longitude":39.2772025
  },
  {
    "Name":"ABD Pharmacy",
    "Latitude":9.0167963,
    "Longitude":38.8338216
  },
  {
    "Name":"Abdar Drug Store",
    "Latitude":8.9490316,
    "Longitude":40.5552338
  },
  {
    "Name":"Abdeal Pharmcy",
    "Latitude":8.9651839,
    "Longitude":38.7275569
  },
  {
    "Name":"Abdela Drug store",
    "Latitude":9.44624,
    "Longitude":42.1348834
  },
  {
    "Name":"Abdela Health Center Community Pharmacy",
    "Latitude":8.369383333,
    "Longitude":36.24592833
  },
  {
    "Name":"Abdi Amin Drug Store",
    "Latitude":5.9545258,
    "Longitude":43.5495139
  },
  {
    "Name":"Abdi Aziz Drug Shop",
    "Latitude":4.1769879,
    "Longitude":42.0571291
  },
  {
    "Name":"Abdi Biya Drug Store",
    "Latitude":9.4763817,
    "Longitude":35.1953884
  },
  {
    "Name":"Abdi Bori Drug Store",
    "Latitude":9.5657724,
    "Longitude":36.632265
  },
  {
    "Name":"Abdi boru Drug Store",
    "Latitude":8.3287177,
    "Longitude":39.3217623
  },
  {
    "Name":"Abdi Boru Drug Store",
    "Latitude":6.8692737,
    "Longitude":39.0209074
  },
  {
    "Name":"Abdi Boruu Drug Store",
    "Latitude":9.394128,
    "Longitude":41.9576223
  },
  {
    "Name":"Abdi Drug Store",
    "Latitude":9.0964468,
    "Longitude":35.3977747
  },
  {
    "Name":"Abdi Drug Store",
    "Latitude":8.4023961,
    "Longitude":35.5183548
  },
  {
    "Name":"Abdi Drug Store",
    "Latitude":7.671924,
    "Longitude":36.8342961
  },
  {
    "Name":"Abdi Drug Store",
    "Latitude":9.0259452,
    "Longitude":38.1587246
  },
  {
    "Name":"Abdi Drug Store",
    "Latitude":8.5401974,
    "Longitude":37.9725608
  },
  {
    "Name":"Abdi Drug Store",
    "Latitude":5.5520596,
    "Longitude":39.3936781
  },
  {
    "Name":"Abdi Drug Store",
    "Latitude":9.6616269,
    "Longitude":37.0804617
  },
  {
    "Name":"Abdi Drug Store",
    "Latitude":8.2556609,
    "Longitude":34.591242
  },
  {
    "Name":"Abdi Drugstore",
    "Latitude":7.8133024,
    "Longitude":36.6853771
  },
  {
    "Name":"Abdi Drugstore",
    "Latitude":8.5816784,
    "Longitude":37.1093714
  },
  {
    "Name":"Abdi Oromiya Drug store",
    "Latitude":9.0895228,
    "Longitude":36.5852101
  },
  {
    "Name":"Abdi Pharmacy",
    "Latitude":8.7580166,
    "Longitude":38.9367023
  },
  {
    "Name":"Abdi Pharmacy",
    "Latitude":7.1964971,
    "Longitude":38.5986063
  },
  {
    "Name":"Abdi Pharmacy",
    "Latitude":9.0328085,
    "Longitude":38.6656878
  },
  {
    "Name":"Abdi Pharmacy",
    "Latitude":9.0330837,
    "Longitude":38.7106428
  },
  {
    "Name":"Abdi Rebi Drug Store",
    "Latitude":7.1137281,
    "Longitude":39.1978667
  },
  {
    "Name":"Abdi Wak Drug store",
    "Latitude":9.0644774,
    "Longitude":38.493504
  },
  {
    "Name":"Abdihuda Drug Store",
    "Latitude":9.3562471,
    "Longitude":42.7841428
  },
  {
    "Name":"Abdilhafize Drug Store",
    "Latitude":7.6806646,
    "Longitude":38.3597308
  },
  {
    "Name":"Abdirabi Drug Store",
    "Latitude":6.9514073,
    "Longitude":40.6190858
  },
  {
    "Name":"Abdisa drug store",
    "Latitude":9.086894,
    "Longitude":36.5277315
  },
  {
    "Name":"Abdisa Drug Store",
    "Latitude":9.1207124,
    "Longitude":37.0692878
  },
  {
    "Name":"Abdisa Drug Store",
    "Latitude":9.1782666,
    "Longitude":38.7575227
  },
  {
    "Name":"Abdiwaaq Rural Drug Vender",
    "Latitude":7.7332986,
    "Longitude":39.0317561
  },
  {
    "Name":"Abdiwak Drug Store",
    "Latitude":7.8234051,
    "Longitude":39.7842177
  },
  {
    "Name":"Abdiwak Drug Store",
    "Latitude":7.9564082,
    "Longitude":39.1321896
  },
  {
    "Name":"Abdu  Drug Store",
    "Latitude":10.3133025,
    "Longitude":39.9900835
  },
  {
    "Name":"abdu drug stor",
    "Latitude":11.663763,
    "Longitude":39.6585336
  },
  {
    "Name":"Abdu Drug Store",
    "Latitude":11.1654467,
    "Longitude":39.9355709
  },
  {
    "Name":"Abdu Drug Store",
    "Latitude":10.9120907,
    "Longitude":39.4971472
  },
  {
    "Name":"Abdu Drug Store",
    "Latitude":11.0877011,
    "Longitude":39.7385361
  },
  {
    "Name":"Abdu Drug store",
    "Latitude":10.2517771,
    "Longitude":37.9389914
  },
  {
    "Name":"Abdu Drug Store",
    "Latitude":11.1899978,
    "Longitude":40.020076
  },
  {
    "Name":"Abdu Drug Store",
    "Latitude":6.8600111,
    "Longitude":35.3381283
  },
  {
    "Name":"Abdul Kerim Drug Store",
    "Latitude":11.1023923,
    "Longitude":39.6283644
  },
  {
    "Name":"Abdulhafiz Pharmacy",
    "Latitude":9.004269,
    "Longitude":38.6850548
  },
  {
    "Name":"Abdurohman Drug store",
    "Latitude":10.5847497,
    "Longitude":38.9964894
  },
  {
    "Name":"Abdurohman Drug Store",
    "Latitude":10.9224604,
    "Longitude":39.786262
  },
  {
    "Name":"Abdusomed Drug Store",
    "Latitude":10.5898544,
    "Longitude":39.4372967
  },
  {
    "Name":"Abe Drug Stor",
    "Latitude":5.7741928,
    "Longitude":36.5747852
  },
  {
    "Name":"Abe Drug store",
    "Latitude":6.3161955,
    "Longitude":38.2574898
  },
  {
    "Name":"Abeba Drug Store",
    "Latitude":13.4740662,
    "Longitude":39.5377466
  },
  {
    "Name":"Abeba drug store",
    "Latitude":11.0154938,
    "Longitude":37.7515452
  },
  {
    "Name":"Abeba Drug Store",
    "Latitude":6.00307,
    "Longitude":38.1524817
  },
  {
    "Name":"Abeba Drug Store",
    "Latitude":6.9590174,
    "Longitude":35.7722695
  },
  {
    "Name":"Abeba Mamo No 1 Drug Store",
    "Latitude":12.6267388,
    "Longitude":39.0344738
  },
  {
    "Name":"Abeba Mengste Drug Store",
    "Latitude":11.1041523,
    "Longitude":39.6281852
  },
  {
    "Name":"Abebaw Drug store",
    "Latitude":9.8040479,
    "Longitude":38.9037094
  },
  {
    "Name":"Abebaw Drug Store",
    "Latitude":10.9844426,
    "Longitude":37.2099052
  },
  {
    "Name":"Abebaw Farmacy",
    "Latitude":11.2228773,
    "Longitude":39.6121476
  },
  {
    "Name":"Abebe Drug  Stor",
    "Latitude":10.9603449,
    "Longitude":36.5009862
  },
  {
    "Name":"abebe drug stor",
    "Latitude":11.6623644,
    "Longitude":39.6624272
  },
  {
    "Name":"Abebe Drug Stor",
    "Latitude":12.5446848,
    "Longitude":37.0639332
  },
  {
    "Name":"Abebe drug store",
    "Latitude":10.4545399,
    "Longitude":38.2008586
  },
  {
    "Name":"Abebe Fekadu Drug Store",
    "Latitude":12.2171599,
    "Longitude":35.8950159
  },
  {
    "Name":"Abebe Pharmacy",
    "Latitude":11.5878045,
    "Longitude":37.3891704
  },
  {
    "Name":"Abebe Sisay Drug Store",
    "Latitude":12.2150704,
    "Longitude":35.8965714
  },
  {
    "Name":"Abebeu drug store",
    "Latitude":11.0771344,
    "Longitude":37.8864253
  },
  {
    "Name":"Abebu Drug Store",
    "Latitude":12.1190385,
    "Longitude":38.051356
  },
  {
    "Name":"Abedelhafize",
    "Latitude":7.3134612,
    "Longitude":38.0858045
  },
  {
    "Name":"Abel Drug Store",
    "Latitude":11.0897552,
    "Longitude":39.7159056
  },
  {
    "Name":"Abel Drug Store",
    "Latitude":9.0682633,
    "Longitude":38.6659581
  },
  {
    "Name":"Abel Drug store",
    "Latitude":9.0662962,
    "Longitude":38.8652179
  },
  {
    "Name":"Abelneh Drug Stor",
    "Latitude":10.9583052,
    "Longitude":36.9223623
  },
  {
    "Name":"Abem Drug Store",
    "Latitude":9.0018341,
    "Longitude":38.6773815
  },
  {
    "Name":"Abem Pharmacy",
    "Latitude":8.5422946,
    "Longitude":39.2843351
  },
  {
    "Name":"Abem Pharmacy",
    "Latitude":9.0077456,
    "Longitude":38.7810187
  },
  {
    "Name":"Abema Drug Store",
    "Latitude":10.3381205,
    "Longitude":37.7290113
  },
  {
    "Name":"Abemelek Drug Store",
    "Latitude":8.2461952,
    "Longitude":34.5978467
  },
  {
    "Name":"Abenet Drug Store",
    "Latitude":11.1622928,
    "Longitude":36.3415182
  },
  {
    "Name":"Abenet Pharmacy",
    "Latitude":9.0188068,
    "Longitude":38.7347264
  },
  {
    "Name":"Abenezar Drug Store",
    "Latitude":9.5982132,
    "Longitude":41.8715952
  },
  {
    "Name":"Abenezer (3D) Drug Store",
    "Latitude":6.6926347,
    "Longitude":38.7184311
  },
  {
    "Name":"Abenezer Drug Store",
    "Latitude":10.003774,
    "Longitude":39.89990002
  },
  {
    "Name":"Abenezer Drug Store",
    "Latitude":11.3586443,
    "Longitude":36.9527832
  },
  {
    "Name":"Abenezer Drug Store",
    "Latitude":9.1858713,
    "Longitude":35.8308458
  },
  {
    "Name":"Abenezer Drug Store",
    "Latitude":9.5649858,
    "Longitude":36.6314877
  },
  {
    "Name":"Abenezer Drug Store",
    "Latitude":8.968035,
    "Longitude":36.6726043
  },
  {
    "Name":"Abenezer Drug Store",
    "Latitude":8.8243893,
    "Longitude":36.9203608
  },
  {
    "Name":"Abenezer Drug Store",
    "Latitude":9.0864043,
    "Longitude":36.5826805
  },
  {
    "Name":"Abenezer Drug Store",
    "Latitude":8.2980993,
    "Longitude":35.580588
  },
  {
    "Name":"Abenezer Drug Store",
    "Latitude":8.9754192,
    "Longitude":37.7636896
  },
  {
    "Name":"Abenezer Drug Store",
    "Latitude":7.73718,
    "Longitude":39.9928288
  },
  {
    "Name":"Abenezer Drug Store",
    "Latitude":5.7765042,
    "Longitude":39.3083502
  },
  {
    "Name":"Abenezer Drug store",
    "Latitude":5.7759223,
    "Longitude":38.2705584
  },
  {
    "Name":"Abenezer Drug Store",
    "Latitude":8.9099472,
    "Longitude":35.2253437
  },
  {
    "Name":"Abenezer Drug Store",
    "Latitude":9.065627,
    "Longitude":38.6121143
  },
  {
    "Name":"Abenezer Drug Store",
    "Latitude":10.0606552,
    "Longitude":34.5457592
  },
  {
    "Name":"Abenezer Drug Store",
    "Latitude":7.2447555,
    "Longitude":37.9007455
  },
  {
    "Name":"Abenezer Drug Store",
    "Latitude":6.3157592,
    "Longitude":38.2552069
  },
  {
    "Name":"Abenezer Drug Store",
    "Latitude":6.0352152,
    "Longitude":37.5591238
  },
  {
    "Name":"Abenezer Drug store",
    "Latitude":6.9814729,
    "Longitude":36.3026048
  },
  {
    "Name":"Abenezer Drug Store",
    "Latitude":7.0090875,
    "Longitude":37.27164
  },
  {
    "Name":"Abenezer Drug Store",
    "Latitude":9.0390086,
    "Longitude":38.8530105
  },
  {
    "Name":"Abenezer Drug Store",
    "Latitude":6.5086086,
    "Longitude":38.63192
  },
  {
    "Name":"Abenezer Drug Store",
    "Latitude":6.6018321,
    "Longitude":38.4213132
  },
  {
    "Name":"Abenezer Drug Store",
    "Latitude":7.0494312,
    "Longitude":38.6137901
  },
  {
    "Name":"Abenezer Pharmacy",
    "Latitude":8.2537433,
    "Longitude":34.5904695
  },
  {
    "Name":"Abenizer Pharmacy",
    "Latitude":10.9734559,
    "Longitude":36.925291
  },
  {
    "Name":"Abera Drug Store",
    "Latitude":7.5087253,
    "Longitude":38.0932404
  },
  {
    "Name":"Abera Drug Store",
    "Latitude":7.567731859,
    "Longitude":38.17842668
  },
  {
    "Name":"Aberaraw Drug store",
    "Latitude":11.7093935,
    "Longitude":37.6303845
  },
  {
    "Name":"Aberaraw Drug Store",
    "Latitude":11.8536224,
    "Longitude":38.0121159
  },
  {
    "Name":"Aberaraw Drug store",
    "Latitude":11.8310248,
    "Longitude":39.6010531
  },
  {
    "Name":"Aberash Pharmacy",
    "Latitude":9.6791851,
    "Longitude":39.534656
  },
  {
    "Name":"Abere drug Store",
    "Latitude":11.4144989,
    "Longitude":37.1568288
  },
  {
    "Name":"Abereham  Drug Store",
    "Latitude":10.7082503,
    "Longitude":37.0740936
  },
  {
    "Name":"Aberham Drug Store",
    "Latitude":10.5052372,
    "Longitude":37.9908782
  },
  {
    "Name":"Aberhame Drug  Store",
    "Latitude":9.6743588,
    "Longitude":39.5299425
  },
  {
    "Name":"Aberos drug store",
    "Latitude":7.8616896,
    "Longitude":38.4243562
  },
  {
    "Name":"Aberus Pharmacy",
    "Latitude":9.0038958,
    "Longitude":38.7586982
  },
  {
    "Name":"Abet Pharmacy",
    "Latitude":8.9023441,
    "Longitude":38.766521
  },
  {
    "Name":"Abget Pharmacy",
    "Latitude":9.0662798,
    "Longitude":38.8752907
  },
  {
    "Name":"Abi Drug Store",
    "Latitude":8.5796656,
    "Longitude":39.1302527
  },
  {
    "Name":"Abi Drug Store",
    "Latitude":8.9036268,
    "Longitude":40.7814422
  },
  {
    "Name":"Abichu Drug Store",
    "Latitude":9.6543997,
    "Longitude":39.3205529
  },
  {
    "Name":"Abidara Drug Store",
    "Latitude":7.5158395,
    "Longitude":37.932666
  },
  {
    "Name":"Abigiya Pharmacy",
    "Latitude":8.9552615,
    "Longitude":38.7866079
  },
  {
    "Name":"Abima Pharmacy",
    "Latitude":9.0156126,
    "Longitude":38.8241165
  },
  {
    "Name":"Abinet  Drug Store",
    "Latitude":8.6625405,
    "Longitude":39.4349751
  },
  {
    "Name":"Abinet  Drug Store",
    "Latitude":8.1363616,
    "Longitude":39.9027198
  },
  {
    "Name":"Abinet Drug Store",
    "Latitude":11.5617107,
    "Longitude":37.3667326
  },
  {
    "Name":"Abinet Drug Store",
    "Latitude":7.2972936,
    "Longitude":39.5751349
  },
  {
    "Name":"Abinet Drugstore",
    "Latitude":8.3033458,
    "Longitude":37.1142186
  },
  {
    "Name":"Abinezer Drug Store",
    "Latitude":8.152717,
    "Longitude":35.5382407
  },
  {
    "Name":"Abiraham Drug Store",
    "Latitude":12.5715653,
    "Longitude":36.1302644
  },
  {
    "Name":"Abiraraew Pharmacy",
    "Latitude":11.8564735,
    "Longitude":38.0227295
  },
  {
    "Name":"Abirham Drug store",
    "Latitude":10.1698618,
    "Longitude":38.148638
  },
  {
    "Name":"Abirham Drug Store",
    "Latitude":11.2549654,
    "Longitude":37.1745389
  },
  {
    "Name":"Abirham Drug Store",
    "Latitude":10.9559228,
    "Longitude":36.5046145
  },
  {
    "Name":"Abishe Drug Store",
    "Latitude":9.0729239,
    "Longitude":38.6781419
  },
  {
    "Name":"Abisinaya Pharmacy",
    "Latitude":11.0866305,
    "Longitude":39.7178804
  },
  {
    "Name":"Abisiniya DrugStoe",
    "Latitude":12.7814873,
    "Longitude":39.5432274
  },
  {
    "Name":"Abisiniya Pharmacy No 7",
    "Latitude":8.9613646,
    "Longitude":38.714401
  },
  {
    "Name":"Abisnya Drug Store",
    "Latitude":7.147508,
    "Longitude":37.1755225
  },
  {
    "Name":"Abiy Drug Store",
    "Latitude":6.4170276,
    "Longitude":38.3018432
  },
  {
    "Name":"Abiy Drug Store",
    "Latitude":7.1456949,
    "Longitude":37.1710631
  },
  {
    "Name":"Abiyot Drug Store",
    "Latitude":7.0694217,
    "Longitude":37.7061159
  },
  {
    "Name":"Abkiya Pharmacy",
    "Latitude":9.6095982,
    "Longitude":41.8415313
  },
  {
    "Name":"Abnearagawi Drug Shop",
    "Latitude":12.93449,
    "Longitude":39.5180336
  },
  {
    "Name":"Abo Pharmacy",
    "Latitude":8.9823855,
    "Longitude":38.7301979
  },
  {
    "Name":"Abogida pharmacy",
    "Latitude":13.4922557,
    "Longitude":39.4773937
  },
  {
    "Name":"Aboker Model Community Pharmacy",
    "Latitude":9.3183766,
    "Longitude":42.1156758
  },
  {
    "Name":"Abol Pharmacy",
    "Latitude":8.947949,
    "Longitude":38.7824419
  },
  {
    "Name":"Abom Drug Store",
    "Latitude":7.7417163,
    "Longitude":35.4771912
  },
  {
    "Name":"Aboma Drug Store",
    "Latitude":9.0700349,
    "Longitude":38.6800251
  },
  {
    "Name":"Abona drug store",
    "Latitude":13.4601725,
    "Longitude":39.4708655
  },
  {
    "Name":"Abonesh Drug store",
    "Latitude":12.6123348,
    "Longitude":37.455028
  },
  {
    "Name":"Abosto Drug Store",
    "Latitude":6.7473161,
    "Longitude":38.3772829
  },
  {
    "Name":"Abosto Pharmacy",
    "Latitude":7.1970624,
    "Longitude":38.5985069
  },
  {
    "Name":"Abrahaley Drug Shop",
    "Latitude":14.1245267,
    "Longitude":37.8768133
  },
  {
    "Name":"Abraham Drug Store",
    "Latitude":8.5456972,
    "Longitude":39.2735518
  },
  {
    "Name":"Abraham Drug Store",
    "Latitude":8.2461405,
    "Longitude":34.5947603
  },
  {
    "Name":"Abraraw Pharmacy",
    "Latitude":11.0842182,
    "Longitude":39.7396151
  },
  {
    "Name":"Abreham drug stor",
    "Latitude":10.4225799,
    "Longitude":37.3727161
  },
  {
    "Name":"Abrha Drug Store",
    "Latitude":14.3910348,
    "Longitude":37.7709627
  },
  {
    "Name":"Abrha Pharmacy",
    "Latitude":13.5183171,
    "Longitude":39.4448802
  },
  {
    "Name":"Abrhaley Drug shop",
    "Latitude":13.9511302,
    "Longitude":38.4543178
  },
  {
    "Name":"Abrham Drug Store",
    "Latitude":11.3614139,
    "Longitude":36.6446006
  },
  {
    "Name":"Abrham Drug Store",
    "Latitude":10.5349411,
    "Longitude":35.9355574
  },
  {
    "Name":"Abrhet Drug Store",
    "Latitude":14.1993487,
    "Longitude":38.3411956
  },
  {
    "Name":"Abriham Pharmacy",
    "Latitude":9.0557532,
    "Longitude":38.7134148
  },
  {
    "Name":"ABS Drug Store",
    "Latitude":9.6044882,
    "Longitude":41.8792053
  },
  {
    "Name":"Absalew Drug Store",
    "Latitude":7.5445766,
    "Longitude":37.8502969
  },
  {
    "Name":"Absinya Pharmacy",
    "Latitude":11.6030496,
    "Longitude":37.3632827
  },
  {
    "Name":"Absira drug store",
    "Latitude":6.0350241,
    "Longitude":37.5554046
  },
  {
    "Name":"Absiye Drug Store",
    "Latitude":9.3511632,
    "Longitude":42.7867568
  },
  {
    "Name":"Absynia Drug Store",
    "Latitude":8.5877679,
    "Longitude":39.1266796
  },
  {
    "Name":"Abu Abdelah Drug store",
    "Latitude":11.1493235,
    "Longitude":39.6284067
  },
  {
    "Name":"Abu Hanifa Drug store",
    "Latitude":7.9169356,
    "Longitude":38.2366092
  },
  {
    "Name":"Abu Meriam Drug Store",
    "Latitude":7.5074943,
    "Longitude":38.0933292
  },
  {
    "Name":"Abubakar Drug Store",
    "Latitude":9.362707,
    "Longitude":42.7892516
  },
  {
    "Name":"Abubakar Drugstore",
    "Latitude":8.4436414,
    "Longitude":36.8522785
  },
  {
    "Name":"Abubeker Drug store",
    "Latitude":11.3104786,
    "Longitude":39.6787442
  },
  {
    "Name":"Abubeker Drug Store",
    "Latitude":9.3063528,
    "Longitude":42.105751
  },
  {
    "Name":"Abubeker Pharmacy",
    "Latitude":11.5688632,
    "Longitude":39.7162382
  },
  {
    "Name":"Abugida Drug Store",
    "Latitude":14.1139134,
    "Longitude":38.4723079
  },
  {
    "Name":"Abugida drug store",
    "Latitude":10.6800805,
    "Longitude":37.268267
  },
  {
    "Name":"Abugida Drug Store",
    "Latitude":6.5276067,
    "Longitude":38.712691
  },
  {
    "Name":"Abugida Drug Store",
    "Latitude":7.0402741,
    "Longitude":38.4772714
  },
  {
    "Name":"Abugida Pharmacy",
    "Latitude":8.9483469,
    "Longitude":38.7816146
  },
  {
    "Name":"Abuhora'ra Drug Store",
    "Latitude":9.3475888,
    "Longitude":42.7964307
  },
  {
    "Name":"Abuki pharmacy",
    "Latitude":9.0270551,
    "Longitude":38.826265
  },
  {
    "Name":"Abune Aregawi Drug Shop",
    "Latitude":13.7871285,
    "Longitude":39.6009117
  },
  {
    "Name":"Abune Aregawi Drug Store",
    "Latitude":13.9800495,
    "Longitude":39.4300912
  },
  {
    "Name":"Abunearegawi Pharmacy",
    "Latitude":8.9839811,
    "Longitude":38.7090097
  },
  {
    "Name":"Abuni-7 Drug Store",
    "Latitude":7.5592758,
    "Longitude":37.8502634
  },
  {
    "Name":"Aburashingul Drug Store",
    "Latitude":10.1787382,
    "Longitude":34.8519355
  },
  {
    "Name":"Abush Drug Store",
    "Latitude":5.6477648,
    "Longitude":37.3680012
  },
  {
    "Name":"Aby Worku Drug Store",
    "Latitude":10.4697051,
    "Longitude":38.890609
  },
  {
    "Name":"Abysiniya Pharmacy number 5",
    "Latitude":8.9840958,
    "Longitude":38.7498372
  },
  {
    "Name":"Abysiniya Pharmacy number 6",
    "Latitude":9.0212294,
    "Longitude":38.8374839
  },
  {
    "Name":"Abyssinia Pharmacy number 1",
    "Latitude":8.9482417,
    "Longitude":38.72402
  },
  {
    "Name":"Abyssinia Pharmacy number 3",
    "Latitude":9.0110387,
    "Longitude":38.7382861
  },
  {
    "Name":"Action Druge Store",
    "Latitude":8.8943474,
    "Longitude":38.8044041
  },
  {
    "Name":"Ada Drug Store",
    "Latitude":8.9058564,
    "Longitude":35.226892
  },
  {
    "Name":"Adaba Drug Store",
    "Latitude":7.0060811,
    "Longitude":39.38947
  },
  {
    "Name":"Adaba Health Center Community Drug Store",
    "Latitude":7.007895,
    "Longitude":39.3956031
  },
  {
    "Name":"Adam Drug Store",
    "Latitude":8.9814062,
    "Longitude":37.8687342
  },
  {
    "Name":"Adam Drug Store",
    "Latitude":9.4322445,
    "Longitude":42.1185708
  },
  {
    "Name":"Adam Drug Store",
    "Latitude":7.2714949,
    "Longitude":39.8222176
  },
  {
    "Name":"Adama Drug Store",
    "Latitude":11.0961206,
    "Longitude":37.3913769
  },
  {
    "Name":"Adama Drug Store",
    "Latitude":9.352517,
    "Longitude":42.7720524
  },
  {
    "Name":"Adama Drug store No 1",
    "Latitude":8.5314428,
    "Longitude":39.2652089
  },
  {
    "Name":"Adama Health Center Community Pharmacy",
    "Latitude":8.5423441,
    "Longitude":39.2724244
  },
  {
    "Name":"Adama Pharmacy",
    "Latitude":8.5395512,
    "Longitude":39.2606968
  },
  {
    "Name":"Adami Tulu Drug Store",
    "Latitude":7.8601285,
    "Longitude":38.7071391
  },
  {
    "Name":"Adamie Drug Store",
    "Latitude":11.2369007,
    "Longitude":39.8351476
  },
  {
    "Name":"Adams Pharmacy",
    "Latitude":9.0036697,
    "Longitude":38.7582333
  },
  {
    "Name":"Adamu Drug Store",
    "Latitude":9.1372929,
    "Longitude":41.8363234
  },
  {
    "Name":"Adane Drug store",
    "Latitude":11.9195912,
    "Longitude":37.6991735
  },
  {
    "Name":"Adane Drug Store",
    "Latitude":10.770705,
    "Longitude":38.87758033
  },
  {
    "Name":"Adane drug store",
    "Latitude":10.9263003,
    "Longitude":38.0878325
  },
  {
    "Name":"Adane Drug Store",
    "Latitude":8.3281802,
    "Longitude":38.5532452
  },
  {
    "Name":"Adane Drug Store",
    "Latitude":6.4520233,
    "Longitude":38.62077
  },
  {
    "Name":"Adane Pharmacy",
    "Latitude":9.0432899,
    "Longitude":38.7464088
  },
  {
    "Name":"Adanech Drug Store",
    "Latitude":5.7764979,
    "Longitude":36.5674544
  },
  {
    "Name":"Adare General Hospital Community Pharmacy",
    "Latitude":7.051395,
    "Longitude":38.477067
  },
  {
    "Name":"Adare General Hospital Community Pharmacy No. 2",
    "Latitude":7.051236,
    "Longitude":38.4731342
  },
  {
    "Name":"Adari Temihiret Bet",
    "Latitude":11.1414878,
    "Longitude":39.6528831
  },
  {
    "Name":"Adawa Pharmacy",
    "Latitude":9.013979,
    "Longitude":38.7496644
  },
  {
    "Name":"Adaye Drug Store",
    "Latitude":9.995687,
    "Longitude":34.6636694
  },
  {
    "Name":"Adays Drug Store",
    "Latitude":5.955543,
    "Longitude":43.5528085
  },
  {
    "Name":"Addi Drug Store",
    "Latitude":8.1200427,
    "Longitude":38.3789122
  },
  {
    "Name":"Addis Ababa Teklehaymanot Drug Store",
    "Latitude":9.0285974,
    "Longitude":38.7441574
  },
  {
    "Name":"Addis Alem Drug Store",
    "Latitude":11.6050951,
    "Longitude":37.4123458
  },
  {
    "Name":"Addis Alem Drug Store",
    "Latitude":11.2191942,
    "Longitude":37.6750532
  },
  {
    "Name":"Addis Alemayehu Bekele",
    "Latitude":8.9257307,
    "Longitude":39.4224503
  },
  {
    "Name":"Addis Beteseb Drug Store",
    "Latitude":5.6320919,
    "Longitude":38.2387225
  },
  {
    "Name":"Addis Continental Drug Store",
    "Latitude":8.9846132,
    "Longitude":38.7732858
  },
  {
    "Name":"Addis Continental Pharmacy",
    "Latitude":8.9946242,
    "Longitude":38.7786286
  },
  {
    "Name":"Addis Demis Drug store",
    "Latitude":8.9794334,
    "Longitude":38.6995879
  },
  {
    "Name":"Addis Drug Store",
    "Latitude":9.8536491,
    "Longitude":39.7942456
  },
  {
    "Name":"Addis Drug Store",
    "Latitude":9.6805867,
    "Longitude":39.538906
  },
  {
    "Name":"Addis Drug Store",
    "Latitude":10.3342841,
    "Longitude":37.7289977
  },
  {
    "Name":"Addis Drug Store",
    "Latitude":12.5938841,
    "Longitude":37.446268
  },
  {
    "Name":"Addis Drug Store",
    "Latitude":7.346253333,
    "Longitude":37.95071
  },
  {
    "Name":"Addis Drug Store",
    "Latitude":8.9385906,
    "Longitude":38.7238381
  },
  {
    "Name":"Addis Fews Pharmacy",
    "Latitude":8.9873897,
    "Longitude":38.7621254
  },
  {
    "Name":"Addis Hiwot Drug store",
    "Latitude":5.3404923,
    "Longitude":37.4397996
  },
  {
    "Name":"Addis Hiwot Pharmacy",
    "Latitude":7.0405715,
    "Longitude":38.4823235
  },
  {
    "Name":"Addis Ketema Sebategna Pharmacy",
    "Latitude":9.0277145,
    "Longitude":38.7330031
  },
  {
    "Name":"Addis Miraf Pharmacy",
    "Latitude":11.6017256,
    "Longitude":37.4226738
  },
  {
    "Name":"Addis pharmacy",
    "Latitude":9.3118819,
    "Longitude":42.1140779
  },
  {
    "Name":"Addis Pharmacy",
    "Latitude":9.0261893,
    "Longitude":38.7825149
  },
  {
    "Name":"Addis Vission pharmacy",
    "Latitude":10.3427075,
    "Longitude":37.7299478
  },
  {
    "Name":"Addis Yina Drg Store",
    "Latitude":8.2101981,
    "Longitude":37.794249
  },
  {
    "Name":"Addishiwot Drug Store",
    "Latitude":8.9876396,
    "Longitude":38.8208206
  },
  {
    "Name":"Addisu Drug Store",
    "Latitude":10.3442069,
    "Longitude":37.7301373
  },
  {
    "Name":"Addisu Drug Store",
    "Latitude":11.0794323,
    "Longitude":36.8857808
  },
  {
    "Name":"Addisu Drug Store",
    "Latitude":7.26994349,
    "Longitude":35.77060069
  },
  {
    "Name":"Addisu Mikililand Pharmacy",
    "Latitude":9.0511739,
    "Longitude":38.6987004
  },
  {
    "Name":"Addisyohannes  Pharmacy",
    "Latitude":8.9920821,
    "Longitude":38.7640739
  },
  {
    "Name":"Adea Liban Drug store",
    "Latitude":8.7466055,
    "Longitude":38.9699231
  },
  {
    "Name":"Adebabaye Drug Store",
    "Latitude":8.20698175,
    "Longitude":37.78949614
  },
  {
    "Name":"Adebaby  pharmacy",
    "Latitude":13.4962875,
    "Longitude":39.4734558
  },
  {
    "Name":"Adeg Drug Store",
    "Latitude":9.6130331,
    "Longitude":42.9792912
  },
  {
    "Name":"Adele Drug Store",
    "Latitude":9.3980836,
    "Longitude":42.0063053
  },
  {
    "Name":"Adem drug stor",
    "Latitude":11.1905595,
    "Longitude":40.0204888
  },
  {
    "Name":"Adem Drug Store",
    "Latitude":10.6380344,
    "Longitude":38.8223924
  },
  {
    "Name":"Adem Drug Store",
    "Latitude":10.0069959,
    "Longitude":38.2467562
  },
  {
    "Name":"Ademasu Drug Store",
    "Latitude":10.7021332,
    "Longitude":37.0595597
  },
  {
    "Name":"Aden Drug Store",
    "Latitude":11.566575,
    "Longitude":41.4387667
  },
  {
    "Name":"Aden Hasan Ali Drug Store",
    "Latitude":4.1776956,
    "Longitude":42.05886
  },
  {
    "Name":"Adey Pharmacy",
    "Latitude":8.9833974,
    "Longitude":38.7085255
  },
  {
    "Name":"Adeyane Drug Store",
    "Latitude":8.1251688,
    "Longitude":38.3791723
  },
  {
    "Name":"Adhale Drug Shop",
    "Latitude":5.0869221,
    "Longitude":45.0345979
  },
  {
    "Name":"Adi Drug store",
    "Latitude":4.893536,
    "Longitude":38.0912564
  },
  {
    "Name":"Adiesa drug store",
    "Latitude":11.0728162,
    "Longitude":37.8836048
  },
  {
    "Name":"Adigrat Pharmacy",
    "Latitude":14.2778293,
    "Longitude":39.4630995
  },
  {
    "Name":"Adila Pharmacy",
    "Latitude":9.0326153,
    "Longitude":38.877434
  },
  {
    "Name":"Adimas Drug Store",
    "Latitude":11.0869776,
    "Longitude":39.7186649
  },
  {
    "Name":"Adina Astewul",
    "Latitude":12.3950201,
    "Longitude":35.9516782
  },
  {
    "Name":"Adinakore Drug Store",
    "Latitude":6.5926648,
    "Longitude":38.5991619
  },
  {
    "Name":"Adinas Drug Store",
    "Latitude":9.0164192,
    "Longitude":38.772452
  },
  {
    "Name":"Adis Alem Pharmacy No2",
    "Latitude":11.1268303,
    "Longitude":39.6346995
  },
  {
    "Name":"Adis Berhan Druge store",
    "Latitude":9.6681715,
    "Longitude":39.527955
  },
  {
    "Name":"Adis Drugstore",
    "Latitude":8.309022,
    "Longitude":37.3653223
  },
  {
    "Name":"Adis Finote pharmacy",
    "Latitude":10.67856,
    "Longitude":37.260256
  },
  {
    "Name":"Adis Ketema Drug Store",
    "Latitude":8.8706121,
    "Longitude":39.917545
  },
  {
    "Name":"Adis Pharmacy",
    "Latitude":10.9545312,
    "Longitude":36.5075129
  },
  {
    "Name":"Adis Pharmacy",
    "Latitude":8.5996267,
    "Longitude":39.121578
  },
  {
    "Name":"Adis Tena Drug Store",
    "Latitude":6.9585253,
    "Longitude":37.8614485
  },
  {
    "Name":"Adisalem Drug STORE",
    "Latitude":11.6812189,
    "Longitude":37.2833313
  },
  {
    "Name":"Adisalem Drug store",
    "Latitude":6.3048637,
    "Longitude":38.409858
  },
  {
    "Name":"Adisalem Drug Store",
    "Latitude":6.7269564,
    "Longitude":37.5577394
  },
  {
    "Name":"Adisalem Pharmacy",
    "Latitude":11.1318596,
    "Longitude":39.6334059
  },
  {
    "Name":"Adise Drug Store",
    "Latitude":8.9839183,
    "Longitude":37.8734567
  },
  {
    "Name":"Adisitu Rural Drug Vendor",
    "Latitude":8.2999313,
    "Longitude":35.5815323
  },
  {
    "Name":"Adiss Merafe Drug Store",
    "Latitude":8.1269652,
    "Longitude":38.3763402
  },
  {
    "Name":"Adissu mesfin drug store",
    "Latitude":10.9251958,
    "Longitude":37.8903577
  },
  {
    "Name":"Adisu Drug Store",
    "Latitude":13.6243503,
    "Longitude":38.9990461
  },
  {
    "Name":"Adisu Drug Store",
    "Latitude":11.0791509,
    "Longitude":37.8818365
  },
  {
    "Name":"Adiyabo Drug Shop",
    "Latitude":14.3126267,
    "Longitude":38.1725225
  },
  {
    "Name":"Adiye Pharmacy",
    "Latitude":9.0578521,
    "Longitude":38.7121913
  },
  {
    "Name":"Admas Drug store",
    "Latitude":13.4901404,
    "Longitude":39.4690026
  },
  {
    "Name":"Admas Pharmacy",
    "Latitude":11.1318453,
    "Longitude":39.63462
  },
  {
    "Name":"Ado Drug Stor",
    "Latitude":14.2820803,
    "Longitude":39.4606597
  },
  {
    "Name":"Ado Pharmacy",
    "Latitude":13.5099943,
    "Longitude":39.4587252
  },
  {
    "Name":"Ado Rural Drug Vendor",
    "Latitude":4.1803932,
    "Longitude":42.0580226
  },
  {
    "Name":"Adola Woyu General Hospital Model Community Pharmacy",
    "Latitude":5.8670412,
    "Longitude":38.9941354
  },
  {
    "Name":"Adolis Drug Store",
    "Latitude":13.4585077,
    "Longitude":39.4740145
  },
  {
    "Name":"Adom Drug Store",
    "Latitude":13.5099974,
    "Longitude":39.4587876
  },
  {
    "Name":"Adonay Drug Store",
    "Latitude":9.0401515,
    "Longitude":36.870278
  },
  {
    "Name":"Adonay drug store",
    "Latitude":6.47191,
    "Longitude":37.45687
  },
  {
    "Name":"Adonay pharmacy",
    "Latitude":7.6732749,
    "Longitude":36.8541301
  },
  {
    "Name":"Adonay pharmacy",
    "Latitude":9.0079305,
    "Longitude":38.7229919
  },
  {
    "Name":"Adoni Drug Store",
    "Latitude":8.8751219,
    "Longitude":38.8126484
  },
  {
    "Name":"Adonies Pharmacy",
    "Latitude":9.5902991,
    "Longitude":41.857882
  },
  {
    "Name":"Adot Drug Store",
    "Latitude":9.0367291,
    "Longitude":38.8779102
  },
  {
    "Name":"Adote Pharmacy",
    "Latitude":9.0360449,
    "Longitude":38.8287866
  },
  {
    "Name":"Adu Birra Drug Store",
    "Latitude":9.3965009,
    "Longitude":42.0097541
  },
  {
    "Name":"Adu Drug Store",
    "Latitude":9.025986,
    "Longitude":38.6534739
  },
  {
    "Name":"Aduba Drug Store",
    "Latitude":9.9790231,
    "Longitude":41.1653464
  },
  {
    "Name":"Adugna Drug Shop",
    "Latitude":12.7996279,
    "Longitude":39.647056
  },
  {
    "Name":"Adugnaw Pharmacy",
    "Latitude":10.7094501,
    "Longitude":37.0752354
  },
  {
    "Name":"Aduk Drug Store",
    "Latitude":10.9552391,
    "Longitude":36.9343304
  },
  {
    "Name":"Adulala Drug Store",
    "Latitude":8.5371808,
    "Longitude":38.9017966
  },
  {
    "Name":"Adulala Health Center Community Pharmacy",
    "Latitude":8.5408019,
    "Longitude":38.9010788
  },
  {
    "Name":"Adulis Drug Stor",
    "Latitude":14.2782639,
    "Longitude":39.4620672
  },
  {
    "Name":"Adwa Drug Store",
    "Latitude":9.1294939,
    "Longitude":40.1672533
  },
  {
    "Name":"Ady Drug store",
    "Latitude":12.7495365,
    "Longitude":37.411533
  },
  {
    "Name":"Aealaf  drug store",
    "Latitude":11.0738982,
    "Longitude":37.8837202
  },
  {
    "Name":"Aebla Drug Shop",
    "Latitude":12.7978703,
    "Longitude":39.6446858
  },
  {
    "Name":"AelshadaY Drug Store",
    "Latitude":5.8326936,
    "Longitude":37.9042119
  },
  {
    "Name":"Aesha Drug Store",
    "Latitude":10.7133509,
    "Longitude":39.8703645
  },
  {
    "Name":"Afambo Drug Store",
    "Latitude":11.5691508,
    "Longitude":41.4361232
  },
  {
    "Name":"Afambo Drug Store",
    "Latitude":11.0818377,
    "Longitude":39.7394812
  },
  {
    "Name":"Afar Drug Store",
    "Latitude":11.5681691,
    "Longitude":41.4367028
  },
  {
    "Name":"Afar Drug Store",
    "Latitude":11.7279527,
    "Longitude":40.9824304
  },
  {
    "Name":"Afar Drug Store",
    "Latitude":12.483036,
    "Longitude":40.3141322
  },
  {
    "Name":"Afdel Drug Store",
    "Latitude":7.79100691,
    "Longitude":38.244825
  },
  {
    "Name":"Afder Rural Drug Vender",
    "Latitude":5.2245766,
    "Longitude":42.1772095
  },
  {
    "Name":"Afdheer Drug Shop",
    "Latitude":4.6376983,
    "Longitude":42.6130312
  },
  {
    "Name":"Afensha Drug Store",
    "Latitude":6.4882456,
    "Longitude":38.5185473
  },
  {
    "Name":"Afewerki Drug shop",
    "Latitude":13.9526958,
    "Longitude":38.4560817
  },
  {
    "Name":"Afework Drug Store",
    "Latitude":6.8585471,
    "Longitude":37.770737
  },
  {
    "Name":"Afeya Drug stor",
    "Latitude":9.1763664,
    "Longitude":38.7628313
  },
  {
    "Name":"Afeya Drug Stor",
    "Latitude":5.7901911,
    "Longitude":36.568961
  },
  {
    "Name":"Afeya Drug Store",
    "Latitude":7.3089033,
    "Longitude":38.090268
  },
  {
    "Name":"Afeyana Drug Store",
    "Latitude":8.1363823,
    "Longitude":38.008754
  },
  {
    "Name":"Affini Drug Store",
    "Latitude":6.6153081,
    "Longitude":38.4231422
  },
  {
    "Name":"Affini Drug Store",
    "Latitude":6.525085,
    "Longitude":38.8280533
  },
  {
    "Name":"Afi Drug store",
    "Latitude":9.3627494,
    "Longitude":42.7940013
  },
  {
    "Name":"Afi Drug Store",
    "Latitude":9.5976202,
    "Longitude":43.3325991
  },
  {
    "Name":"Afi Drug store",
    "Latitude":8.1348314,
    "Longitude":45.1353687
  },
  {
    "Name":"Afi Drug Store",
    "Latitude":8.8711351,
    "Longitude":38.7992849
  },
  {
    "Name":"Afia Drug Store",
    "Latitude":9.3511641,
    "Longitude":42.7984413
  },
  {
    "Name":"Afia Drug Store",
    "Latitude":9.5978511,
    "Longitude":43.3314277
  },
  {
    "Name":"Afia Drugstore",
    "Latitude":7.9091033,
    "Longitude":36.0991393
  },
  {
    "Name":"Afia Drugstore",
    "Latitude":8.0030771,
    "Longitude":36.4917436
  },
  {
    "Name":"Afia Pharmacy",
    "Latitude":7.9649764,
    "Longitude":39.1331823
  },
  {
    "Name":"Afirca Drug store",
    "Latitude":6.4159145,
    "Longitude":38.3050745
  },
  {
    "Name":"Afiya drug stor",
    "Latitude":11.7564787,
    "Longitude":39.6038676
  },
  {
    "Name":"Afiya Drug Store",
    "Latitude":11.7367303,
    "Longitude":41.0827704
  },
  {
    "Name":"Afiya Drug Store",
    "Latitude":13.3583205,
    "Longitude":39.7508184
  },
  {
    "Name":"Afiya Drug Store",
    "Latitude":9.1299423,
    "Longitude":40.1672507
  },
  {
    "Name":"Afiya Drug Store",
    "Latitude":10.8140953,
    "Longitude":40.1816858
  },
  {
    "Name":"Afiya Drug Store",
    "Latitude":10.6265939,
    "Longitude":40.3118975
  },
  {
    "Name":"Afiya Drug Store",
    "Latitude":10.9224517,
    "Longitude":39.7861883
  },
  {
    "Name":"Afiya Drug Store",
    "Latitude":11.612306,
    "Longitude":37.4275554
  },
  {
    "Name":"Afiya Drug Store",
    "Latitude":8.3284772,
    "Longitude":39.3217319
  },
  {
    "Name":"Afiya Drug Store",
    "Latitude":8.0614105,
    "Longitude":39.5565123
  },
  {
    "Name":"Afiya Drug Store",
    "Latitude":9.2241277,
    "Longitude":42.3230114
  },
  {
    "Name":"Afiya Drug Store",
    "Latitude":9.4030847,
    "Longitude":41.983718
  },
  {
    "Name":"Afiya Drug Store",
    "Latitude":6.9948945,
    "Longitude":40.4818131
  },
  {
    "Name":"Afiya Drug Store",
    "Latitude":7.1265606,
    "Longitude":40.0036428
  },
  {
    "Name":"Afiya Drug Store",
    "Latitude":7.0058427,
    "Longitude":39.3896862
  },
  {
    "Name":"Afiya Drug Store",
    "Latitude":8.9350512,
    "Longitude":38.6503603
  },
  {
    "Name":"Afiya Drug Store",
    "Latitude":9.1153339,
    "Longitude":38.7258911
  },
  {
    "Name":"Afiya Drug Store",
    "Latitude":11.2995354,
    "Longitude":36.2429225
  },
  {
    "Name":"Afiya Drug Store",
    "Latitude":11.3270274,
    "Longitude":36.4077196
  },
  {
    "Name":"Afiya Drug Store",
    "Latitude":8.2904287,
    "Longitude":37.7829155
  },
  {
    "Name":"Afiya Drug Store",
    "Latitude":7.5516512,
    "Longitude":37.8454627
  },
  {
    "Name":"Afiya Drug Store",
    "Latitude":7.2838766,
    "Longitude":38.2190101
  },
  {
    "Name":"Afiya drug store",
    "Latitude":7.7473207,
    "Longitude":37.8954891
  },
  {
    "Name":"Afiya drug store",
    "Latitude":7.1966855,
    "Longitude":35.4255731
  },
  {
    "Name":"Afiya Drug store",
    "Latitude":6.9828884,
    "Longitude":35.5713148
  },
  {
    "Name":"Afiya Drug Store",
    "Latitude":9.3117601,
    "Longitude":42.1316986
  },
  {
    "Name":"Afiya Drug Store",
    "Latitude":8.9319504,
    "Longitude":38.7280766
  },
  {
    "Name":"Afiya Drug Store",
    "Latitude":8.9882335,
    "Longitude":38.677543
  },
  {
    "Name":"Afiya Drugstore",
    "Latitude":8.3045742,
    "Longitude":37.1145751
  },
  {
    "Name":"Afiya Pharmacy",
    "Latitude":8.9034423,
    "Longitude":39.9180223
  },
  {
    "Name":"Afiya Pharmacy",
    "Latitude":5.3315532,
    "Longitude":39.575243
  },
  {
    "Name":"Afiya Pharmacy",
    "Latitude":7.0402763,
    "Longitude":38.4814146
  },
  {
    "Name":"Afiya Pharmacy #1",
    "Latitude":7.1995336,
    "Longitude":38.6138425
  },
  {
    "Name":"Afiya Pharmacy #2",
    "Latitude":7.1957111,
    "Longitude":38.5976528
  },
  {
    "Name":"Aflah Drug Store",
    "Latitude":9.3638704,
    "Longitude":42.7898083
  },
  {
    "Name":"Aflah Drug Store",
    "Latitude":9.597774,
    "Longitude":43.333397
  },
  {
    "Name":"Aflah Drug Store",
    "Latitude":5.9541645,
    "Longitude":43.5551081
  },
  {
    "Name":"Afnan Drug Store",
    "Latitude":9.4016841,
    "Longitude":41.9923005
  },
  {
    "Name":"Afombo Drug Store",
    "Latitude":11.7285603,
    "Longitude":40.983408
  },
  {
    "Name":"Afomeia Drug store",
    "Latitude":12.9814418,
    "Longitude":37.759925
  },
  {
    "Name":"Afomiya Pharmacy",
    "Latitude":8.9518198,
    "Longitude":38.7775168
  },
  {
    "Name":"Afran Drug Store",
    "Latitude":7.8611971,
    "Longitude":38.4244491
  },
  {
    "Name":"Afran Kalo Pharmacy",
    "Latitude":9.5866766,
    "Longitude":41.8593406
  },
  {
    "Name":"Afrem Drug Store",
    "Latitude":12.6086568,
    "Longitude":37.4711504
  },
  {
    "Name":"Afren Kello Drug Store",
    "Latitude":9.2494532,
    "Longitude":42.0328177
  },
  {
    "Name":"Afren Kello Drug Store",
    "Latitude":9.2134507,
    "Longitude":42.2153128
  },
  {
    "Name":"Afren Kelo Drug Store",
    "Latitude":9.3980022,
    "Longitude":41.5765688
  },
  {
    "Name":"Afren Qalo Drug store",
    "Latitude":9.3292569,
    "Longitude":41.4454773
  },
  {
    "Name":"Africa Drug Store",
    "Latitude":9.0827128,
    "Longitude":36.5524132
  },
  {
    "Name":"Africa Drug Store",
    "Latitude":6.750278,
    "Longitude":40.173754
  },
  {
    "Name":"Africa Drug store",
    "Latitude":8.2238959,
    "Longitude":43.5616486
  },
  {
    "Name":"Africa Drug store",
    "Latitude":8.12358521,
    "Longitude":38.37313651
  },
  {
    "Name":"Africa Drug Store",
    "Latitude":7.0318007,
    "Longitude":38.4731003
  },
  {
    "Name":"Africa Drugstore",
    "Latitude":7.9085534,
    "Longitude":36.09842
  },
  {
    "Name":"Africa Juice Drug Store",
    "Latitude":8.5174935,
    "Longitude":39.568064
  },
  {
    "Name":"Africa Pharmacy",
    "Latitude":14.1039244,
    "Longitude":38.2862426
  },
  {
    "Name":"Africa Pharmacy",
    "Latitude":10.7098509,
    "Longitude":39.8791721
  },
  {
    "Name":"Africa Pharmacy",
    "Latitude":8.5784723,
    "Longitude":39.2763867
  },
  {
    "Name":"Africa Pharmacy",
    "Latitude":9.3080973,
    "Longitude":42.129563
  },
  {
    "Name":"Africa Pharmacy",
    "Latitude":9.0041065,
    "Longitude":38.6873292
  },
  {
    "Name":"Africa Pharmacy",
    "Latitude":8.9801095,
    "Longitude":38.7746737
  },
  {
    "Name":"Africa Pharmacy",
    "Latitude":9.0216743,
    "Longitude":38.7485408
  },
  {
    "Name":"Africa pharmacy",
    "Latitude":9.5928156,
    "Longitude":41.8626142
  },
  {
    "Name":"Africa Pharmacy No2",
    "Latitude":9.0162449,
    "Longitude":38.7429937
  },
  {
    "Name":"Africa Public Pharmacy",
    "Latitude":9.0354555,
    "Longitude":38.7232528
  },
  {
    "Name":"Afrika Drug Store",
    "Latitude":9.7711744,
    "Longitude":38.7392651
  },
  {
    "Name":"Afrina Pharmacy",
    "Latitude":13.4776998,
    "Longitude":39.4576977
  },
  {
    "Name":"Afya Drug Store",
    "Latitude":11.1316827,
    "Longitude":39.6333523
  },
  {
    "Name":"AG Pharmacy",
    "Latitude":9.0335759,
    "Longitude":38.727311
  },
  {
    "Name":"Agape Drug Store",
    "Latitude":8.9830177,
    "Longitude":37.8362415
  },
  {
    "Name":"Agape Pharmacy",
    "Latitude":8.152937,
    "Longitude":38.8268141
  },
  {
    "Name":"Agaro Drug Store",
    "Latitude":7.8551508,
    "Longitude":36.5896207
  },
  {
    "Name":"Agaro Drug Store",
    "Latitude":6.3795035,
    "Longitude":38.9580509
  },
  {
    "Name":"Agartu Drug Store",
    "Latitude":8.9511743,
    "Longitude":38.6841782
  },
  {
    "Name":"Agazi Drug Store",
    "Latitude":14.2785767,
    "Longitude":39.4614843
  },
  {
    "Name":"Agegnehu Drug Store",
    "Latitude":11.3572604,
    "Longitude":36.9564206
  },
  {
    "Name":"Agegnewu Drug store",
    "Latitude":11.7377811,
    "Longitude":38.4720141
  },
  {
    "Name":"Agena Drug Store",
    "Latitude":8.1380464,
    "Longitude":38.0084615
  },
  {
    "Name":"Agename Drug Shop",
    "Latitude":7.5628374,
    "Longitude":37.8541895
  },
  {
    "Name":"Agerie Drug Store",
    "Latitude":11.5725082,
    "Longitude":37.3715346
  },
  {
    "Name":"Agip Drug Stor",
    "Latitude":7.6725233,
    "Longitude":36.8547202
  },
  {
    "Name":"Agmas Pharmacy",
    "Latitude":11.5928519,
    "Longitude":37.3966084
  },
  {
    "Name":"Agriculture & Teaching College Drug Store",
    "Latitude":6.9881984,
    "Longitude":35.5828246
  },
  {
    "Name":"Agumas Drug  Stor",
    "Latitude":11.1874399,
    "Longitude":36.6720181
  },
  {
    "Name":"Agunta Drug store",
    "Latitude":11.5804636,
    "Longitude":37.3890836
  },
  {
    "Name":"Ahad Drug Store",
    "Latitude":9.0004167,
    "Longitude":38.6764212
  },
  {
    "Name":"Ahad Pharmacy",
    "Latitude":9.0221427,
    "Longitude":38.8713745
  },
  {
    "Name":"Ahadu Drug Shop",
    "Latitude":13.7807743,
    "Longitude":39.6007641
  },
  {
    "Name":"Ahadu Drug Shop",
    "Latitude":12.7970669,
    "Longitude":39.6453604
  },
  {
    "Name":"Ahadu Drug shop",
    "Latitude":13.5102381,
    "Longitude":39.4729935
  },
  {
    "Name":"Ahadu Drug store",
    "Latitude":8.9324243,
    "Longitude":38.6642999
  },
  {
    "Name":"Ahadu Drug Store",
    "Latitude":7.5443192,
    "Longitude":37.8531482
  },
  {
    "Name":"Ahadu Drug Store",
    "Latitude":6.9870988,
    "Longitude":35.5764228
  },
  {
    "Name":"Ahadu Pharmacy",
    "Latitude":14.2977616,
    "Longitude":39.4613745
  },
  {
    "Name":"Ahadu pharmacy",
    "Latitude":12.6035695,
    "Longitude":37.4678196
  },
  {
    "Name":"Ahadu Pharmacy",
    "Latitude":7.0408757,
    "Longitude":38.4807636
  },
  {
    "Name":"Ahadu Zema Pharmacy",
    "Latitude":9.0440792,
    "Longitude":38.7441117
  },
  {
    "Name":"Ahemed Yesuf Sherkole Drug Store",
    "Latitude":10.3828115,
    "Longitude":34.5923011
  },
  {
    "Name":"Ahimed Drug Store",
    "Latitude":8.2824343,
    "Longitude":39.8541416
  },
  {
    "Name":"Ahmed Drug Store",
    "Latitude":8.9906922,
    "Longitude":40.1650253
  },
  {
    "Name":"Ahmed Drug Store",
    "Latitude":11.8400934,
    "Longitude":39.7406118
  },
  {
    "Name":"Ahmed Drug Store",
    "Latitude":11.3842386,
    "Longitude":39.5899524
  },
  {
    "Name":"Ahmed Drug Store",
    "Latitude":10.5882815,
    "Longitude":39.4378486
  },
  {
    "Name":"Ahmed Drug Store",
    "Latitude":11.5653093,
    "Longitude":36.4872896
  },
  {
    "Name":"Ahmed drug store",
    "Latitude":11.1904324,
    "Longitude":40.0201376
  },
  {
    "Name":"Ahmed Drug Store",
    "Latitude":8.35351,
    "Longitude":36.11421833
  },
  {
    "Name":"Ahmed Drug Store 01",
    "Latitude":11.5668751,
    "Longitude":36.4938902
  },
  {
    "Name":"Ahmed Druge Store",
    "Latitude":11.3390893,
    "Longitude":39.7709231
  },
  {
    "Name":"Ahmed Endris Drug Store",
    "Latitude":11.3366682,
    "Longitude":39.7720902
  },
  {
    "Name":"Ahmed gure Drug Store",
    "Latitude":9.3620052,
    "Longitude":42.7943797
  },
  {
    "Name":"Ahmed pharamacy",
    "Latitude":11.1911039,
    "Longitude":40.0213792
  },
  {
    "Name":"Ahmed Pharmacy",
    "Latitude":11.8310118,
    "Longitude":39.6012334
  },
  {
    "Name":"Ahmed Reshid Drug Store",
    "Latitude":10.7149877,
    "Longitude":39.8685849
  },
  {
    "Name":"Ahmed Rurral Drug Vender",
    "Latitude":5.2961898,
    "Longitude":40.0444368
  },
  {
    "Name":"Ahmed Zaki Drug Store",
    "Latitude":9.375085,
    "Longitude":42.7841624
  },
  {
    "Name":"Ahyan Pharmacy",
    "Latitude":8.994654,
    "Longitude":38.685489
  },
  {
    "Name":"Ajajn Oliti Drug store",
    "Latitude":8.4543831,
    "Longitude":36.3498597
  },
  {
    "Name":"Aje Drug store",
    "Latitude":7.2972878,
    "Longitude":38.3572125
  },
  {
    "Name":"Ajjis Drug Store",
    "Latitude":11.0758777,
    "Longitude":36.8873378
  },
  {
    "Name":"Ajora Drug Store",
    "Latitude":7.1942693,
    "Longitude":37.6679464
  },
  {
    "Name":"Ajora Drug Store",
    "Latitude":6.9598182,
    "Longitude":37.8626902
  },
  {
    "Name":"Akbal Drug Store",
    "Latitude":9.3692022,
    "Longitude":42.7962666
  },
  {
    "Name":"Akesta Comunity Pharmacy",
    "Latitude":10.8621323,
    "Longitude":39.1790695
  },
  {
    "Name":"Aki Pharmacy",
    "Latitude":8.925295,
    "Longitude":38.7331477
  },
  {
    "Name":"Akilil Pharmacy",
    "Latitude":13.5076523,
    "Longitude":39.4691408
  },
  {
    "Name":"Akin Pharmacy",
    "Latitude":11.1570418,
    "Longitude":36.3460097
  },
  {
    "Name":"Akisen Drug Store",
    "Latitude":7.355071,
    "Longitude":37.7834873
  },
  {
    "Name":"Aklasia drug shop",
    "Latitude":13.496988,
    "Longitude":39.4711688
  },
  {
    "Name":"Akli Drug Store",
    "Latitude":9.5984193,
    "Longitude":43.3328699
  },
  {
    "Name":"Aklil Drug Store",
    "Latitude":8.9303946,
    "Longitude":39.4266313
  },
  {
    "Name":"Aklilu Drug Store",
    "Latitude":6.7270381,
    "Longitude":37.5635391
  },
  {
    "Name":"Aknachew Drug Store",
    "Latitude":11.5651599,
    "Longitude":36.4930949
  },
  {
    "Name":"Aknan Drug Store",
    "Latitude":8.5596807,
    "Longitude":39.2758092
  },
  {
    "Name":"Ako Health Center Community Pharmacy",
    "Latitude":8.0298877,
    "Longitude":37.2027047
  },
  {
    "Name":"Akram Drug Store",
    "Latitude":6.7314165,
    "Longitude":44.283272
  },
  {
    "Name":"Aksas Drug Store",
    "Latitude":9.0728786,
    "Longitude":38.898621
  },
  {
    "Name":"Aksum Pharmacy number 1",
    "Latitude":9.0112978,
    "Longitude":38.7520492
  },
  {
    "Name":"Aksum Pharmacy Number 13",
    "Latitude":8.9997221,
    "Longitude":38.78488
  },
  {
    "Name":"Aksum Pharmacy number 16",
    "Latitude":8.9484451,
    "Longitude":38.7182362
  },
  {
    "Name":"Aksum Pharmacy number 4",
    "Latitude":9.0120832,
    "Longitude":38.7465315
  },
  {
    "Name":"Aksum Pharmacy number 5",
    "Latitude":9.0036667,
    "Longitude":38.696387
  },
  {
    "Name":"Aksum Pharmacy number 6",
    "Latitude":9.0153401,
    "Longitude":38.7845155
  },
  {
    "Name":"Aksum Pharmacy Number 9",
    "Latitude":8.994622,
    "Longitude":38.8134061
  },
  {
    "Name":"Aksum Phrmacy number 10",
    "Latitude":8.9512878,
    "Longitude":38.7447329
  },
  {
    "Name":"Aksumawit Drug Shop",
    "Latitude":14.1232928,
    "Longitude":38.7408051
  },
  {
    "Name":"Al Afiya Drug Store",
    "Latitude":7.8325917,
    "Longitude":38.180253
  },
  {
    "Name":"Al Amir Drug Shop",
    "Latitude":9.3670863,
    "Longitude":42.7769642
  },
  {
    "Name":"Al Amir Drug Store",
    "Latitude":9.3557984,
    "Longitude":42.7805161
  },
  {
    "Name":"Al Aqsa Drug Shop",
    "Latitude":9.5977861,
    "Longitude":43.3316759
  },
  {
    "Name":"Al fathi Drug Store",
    "Latitude":9.3516846,
    "Longitude":42.7880613
  },
  {
    "Name":"Al Furkan Drug Store",
    "Latitude":5.9495783,
    "Longitude":43.5506383
  },
  {
    "Name":"Al Hayat Drug Store",
    "Latitude":14.0534731,
    "Longitude":39.5747356
  },
  {
    "Name":"Al Hira Pharmacy",
    "Latitude":9.0200755,
    "Longitude":38.6944318
  },
  {
    "Name":"Al Imran Drug Store",
    "Latitude":7.4482166,
    "Longitude":38.1359189
  },
  {
    "Name":"Al- KB Drug Store",
    "Latitude":8.9515095,
    "Longitude":38.686797
  },
  {
    "Name":"Al Nadir Drug Store",
    "Latitude":5.6007685,
    "Longitude":44.2013536
  },
  {
    "Name":"Al Nasi'e Drug Store",
    "Latitude":9.3589395,
    "Longitude":42.782012
  },
  {
    "Name":"Al Nur Drug Store",
    "Latitude":9.3489909,
    "Longitude":42.7931858
  },
  {
    "Name":"Al Shems Drug Store",
    "Latitude":9.0004956,
    "Longitude":38.6685638
  },
  {
    "Name":"Ala Bari Drug Store",
    "Latitude":9.34842,
    "Longitude":42.838463
  },
  {
    "Name":"Alaazar Drug Store",
    "Latitude":7.1978515,
    "Longitude":38.5980472
  },
  {
    "Name":"Al-Afeya Drug Store",
    "Latitude":8.1272662,
    "Longitude":38.3756048
  },
  {
    "Name":"Al-afia Rural Drug Vender",
    "Latitude":5.5900789,
    "Longitude":44.2049682
  },
  {
    "Name":"Alafiya Drug Store",
    "Latitude":7.0971589,
    "Longitude":35.4336053
  },
  {
    "Name":"Al-Afiya Drug Store",
    "Latitude":9.0067459,
    "Longitude":38.6730022
  },
  {
    "Name":"Alah wekil Drug Store",
    "Latitude":9.0793257,
    "Longitude":41.365454
  },
  {
    "Name":"Alahwakil Drug Store",
    "Latitude":9.4274036,
    "Longitude":42.241984
  },
  {
    "Name":"Al-alfiya Drug Store",
    "Latitude":9.3806494,
    "Longitude":42.1532174
  },
  {
    "Name":"Alalu Drug Store",
    "Latitude":12.4827586,
    "Longitude":40.3141492
  },
  {
    "Name":"Alamayehu Pharmacy No. 2",
    "Latitude":8.5432162,
    "Longitude":39.2696169
  },
  {
    "Name":"Alame Drug Store",
    "Latitude":7.2431192,
    "Longitude":40.0030677
  },
  {
    "Name":"Alamerwe Drug Store",
    "Latitude":11.481956,
    "Longitude":37.1028446
  },
  {
    "Name":"Alami Drug Store",
    "Latitude":9.3558623,
    "Longitude":42.7897148
  },
  {
    "Name":"Alami Drug Store",
    "Latitude":9.103129,
    "Longitude":43.1767463
  },
  {
    "Name":"Al-Amin Drug Store",
    "Latitude":5.95383,
    "Longitude":43.5494485
  },
  {
    "Name":"Alayan Drug STORE",
    "Latitude":9.3625025,
    "Longitude":42.7951873
  },
  {
    "Name":"Alaye Drug Store",
    "Latitude":11.0796318,
    "Longitude":36.8861338
  },
  {
    "Name":"Alazar Drug Store",
    "Latitude":10.5648596,
    "Longitude":37.4907742
  },
  {
    "Name":"Alazar Drug Store",
    "Latitude":8.2483432,
    "Longitude":34.5906191
  },
  {
    "Name":"Alazar Drug Store",
    "Latitude":6.9828089,
    "Longitude":38.7033525
  },
  {
    "Name":"Alazar Pharmacy",
    "Latitude":7.9646419,
    "Longitude":39.1335676
  },
  {
    "Name":"Alazar Pharmacy",
    "Latitude":9.6020727,
    "Longitude":41.8240032
  },
  {
    "Name":"Albaraka Drug Store",
    "Latitude":9.3696162,
    "Longitude":42.8038137
  },
  {
    "Name":"Al-Baraka Drug Store",
    "Latitude":5.9581612,
    "Longitude":43.5520956
  },
  {
    "Name":"Al-Bayan Drug store",
    "Latitude":9.3500963,
    "Longitude":42.8189506
  },
  {
    "Name":"Albushra Drug Store",
    "Latitude":9.3542658,
    "Longitude":42.7846404
  },
  {
    "Name":"Albushra Drug Store",
    "Latitude":5.3385967,
    "Longitude":41.8805209
  },
  {
    "Name":"Ale Gebora Pharmacy",
    "Latitude":8.9997643,
    "Longitude":38.8046857
  },
  {
    "Name":"Ale Health Center Community Pharmacy",
    "Latitude":7.6254919,
    "Longitude":37.1391003
  },
  {
    "Name":"Alebachew Drug  stor",
    "Latitude":10.4474114,
    "Longitude":38.3448515
  },
  {
    "Name":"Alebachew Drug Store",
    "Latitude":10.6785038,
    "Longitude":37.3745521
  },
  {
    "Name":"Alebel Drug Store",
    "Latitude":12.8675445,
    "Longitude":36.2665896
  },
  {
    "Name":"Alebel Pharmacy",
    "Latitude":12.6141856,
    "Longitude":37.4653051
  },
  {
    "Name":"Alef Pharmacy",
    "Latitude":8.946996,
    "Longitude":38.745305
  },
  {
    "Name":"Alefe Drug Store",
    "Latitude":6.4057046,
    "Longitude":38.3127589
  },
  {
    "Name":"Alehegn Gebeye",
    "Latitude":12.2148419,
    "Longitude":35.8950763
  },
  {
    "Name":"Al-Ekhwan Drug Store",
    "Latitude":7.8491062,
    "Longitude":38.1867675
  },
  {
    "Name":"Alelgn Kelala Drug Store",
    "Latitude":10.5851545,
    "Longitude":38.9979599
  },
  {
    "Name":"Alelgn Mamo Drug Store",
    "Latitude":13.4655508,
    "Longitude":36.4843635
  },
  {
    "Name":"Alelign Drug Store",
    "Latitude":11.2383138,
    "Longitude":39.2439279
  },
  {
    "Name":"Aleltu Drug store",
    "Latitude":9.1967115,
    "Longitude":39.1538625
  },
  {
    "Name":"Aleltu Pharmacy",
    "Latitude":8.982383,
    "Longitude":37.8496223
  },
  {
    "Name":"Alem Bank Pharmacy",
    "Latitude":9.0005782,
    "Longitude":38.6785212
  },
  {
    "Name":"Alem Drug  Stor",
    "Latitude":11.2588147,
    "Longitude":36.8479505
  },
  {
    "Name":"Alem drug Shop",
    "Latitude":13.5257425,
    "Longitude":39.4499165
  },
  {
    "Name":"Alem Drug store",
    "Latitude":14.1027883,
    "Longitude":38.2857703
  },
  {
    "Name":"Alem Drug Store",
    "Latitude":12.4168996,
    "Longitude":39.562494
  },
  {
    "Name":"Alem Drug Store",
    "Latitude":11.3770504,
    "Longitude":39.593409
  },
  {
    "Name":"Alem drug store",
    "Latitude":10.9567665,
    "Longitude":36.9286072
  },
  {
    "Name":"Alem Drug Store",
    "Latitude":12.429241,
    "Longitude":37.3381394
  },
  {
    "Name":"Alem Drug Store",
    "Latitude":8.7948665,
    "Longitude":38.9008168
  },
  {
    "Name":"Alem Drug Store",
    "Latitude":11.2527779,
    "Longitude":36.3750045
  },
  {
    "Name":"Alem Drug Store",
    "Latitude":8.8820766,
    "Longitude":38.7729577
  },
  {
    "Name":"Alem Drugstore",
    "Latitude":7.8515982,
    "Longitude":37.2314433
  },
  {
    "Name":"Alem Gena Health Center Community Pharmacy",
    "Latitude":8.930422,
    "Longitude":38.6627882
  },
  {
    "Name":"Alem Pharmacy",
    "Latitude":6.3008818,
    "Longitude":36.8814341
  },
  {
    "Name":"Alem Pharmacy",
    "Latitude":8.9890203,
    "Longitude":38.7081242
  },
  {
    "Name":"Alem Pharmacy",
    "Latitude":9.0202778,
    "Longitude":38.7949275
  },
  {
    "Name":"Alem Pharmacy",
    "Latitude":7.0499872,
    "Longitude":38.4727308
  },
  {
    "Name":"Alem tena Pharmacy",
    "Latitude":9.0462431,
    "Longitude":38.7293608
  },
  {
    "Name":"Alem Tsehay Drug Store",
    "Latitude":8.0633278,
    "Longitude":38.4751085
  },
  {
    "Name":"Alemayehu Drug Store",
    "Latitude":11.5428351,
    "Longitude":39.6215021
  },
  {
    "Name":"Alemayeu Pharmacy",
    "Latitude":8.5469353,
    "Longitude":39.2754928
  },
  {
    "Name":"Alemayhue Shewfera Drug Store",
    "Latitude":9.2495058,
    "Longitude":39.2115189
  },
  {
    "Name":"Alemaz Drug store",
    "Latitude":8.7495131,
    "Longitude":38.9900122
  },
  {
    "Name":"Alemishet Drug store",
    "Latitude":9.0299603,
    "Longitude":38.1408563
  },
  {
    "Name":"Alemtshay drug stor",
    "Latitude":10.5927556,
    "Longitude":37.6876804
  },
  {
    "Name":"Alemu  Drug Store",
    "Latitude":10.880188,
    "Longitude":39.6450872
  },
  {
    "Name":"Alemu Drug Store",
    "Latitude":11.5689943,
    "Longitude":39.7159998
  },
  {
    "Name":"Alemu Drug Store",
    "Latitude":10.5935136,
    "Longitude":38.7587489
  },
  {
    "Name":"Alemu Drug Store",
    "Latitude":12.6117613,
    "Longitude":37.4686839
  },
  {
    "Name":"Alemu Drug Store No 2",
    "Latitude":11.6648872,
    "Longitude":39.6592965
  },
  {
    "Name":"Alemu Durg  store",
    "Latitude":11.4131639,
    "Longitude":37.4017429
  },
  {
    "Name":"Alemu Fayisa Drug store",
    "Latitude":8.7657638,
    "Longitude":38.9494253
  },
  {
    "Name":"Alena Drug Store",
    "Latitude":7.074104,
    "Longitude":38.4884732
  },
  {
    "Name":"Alene Rural Drug Vender",
    "Latitude":10.6450619,
    "Longitude":36.9459512
  },
  {
    "Name":"Aleta Chuko Primary Hospital Community Pharmacy",
    "Latitude":6.5813939,
    "Longitude":38.3328269
  },
  {
    "Name":"Aleta Wondo Drug Store",
    "Latitude":6.7473883,
    "Longitude":38.4060217
  },
  {
    "Name":"Aleta Wondo Primary Hospital Community Pharmacy",
    "Latitude":6.6003727,
    "Longitude":38.4213528
  },
  {
    "Name":"Alewsew  Drug store",
    "Latitude":11.9364536,
    "Longitude":36.8773772
  },
  {
    "Name":"Alex Drug Store",
    "Latitude":8.5622028,
    "Longitude":39.2814838
  },
  {
    "Name":"Alex Pharmacy",
    "Latitude":7.310224,
    "Longitude":38.0970232
  },
  {
    "Name":"Alex Pharmacy",
    "Latitude":9.0041912,
    "Longitude":38.685551
  },
  {
    "Name":"Alfa",
    "Latitude":13.5004222,
    "Longitude":39.4831789
  },
  {
    "Name":"Alfa Drug Store",
    "Latitude":8.8854376,
    "Longitude":38.7250556
  },
  {
    "Name":"Alfa Drugstore",
    "Latitude":7.7414531,
    "Longitude":36.2496087
  },
  {
    "Name":"Alfa ena Omega Drug Store",
    "Latitude":7.5612087,
    "Longitude":37.8873892
  },
  {
    "Name":"Alfa Pharmacy",
    "Latitude":9.5986584,
    "Longitude":41.8702727
  },
  {
    "Name":"Alfadli Drug Store",
    "Latitude":9.3648514,
    "Longitude":42.7933957
  },
  {
    "Name":"Alfaruk Drug Store",
    "Latitude":11.8308541,
    "Longitude":39.6010086
  },
  {
    "Name":"Alfathi Drug Store",
    "Latitude":9.3640484,
    "Longitude":42.7898363
  },
  {
    "Name":"Alfewus Drug Store",
    "Latitude":8.9964397,
    "Longitude":38.671312
  },
  {
    "Name":"Alfewz Drug Store",
    "Latitude":7.791346209,
    "Longitude":38.24462031
  },
  {
    "Name":"Alfida Drug Store",
    "Latitude":9.3474417,
    "Longitude":42.7966467
  },
  {
    "Name":"Alfuad Drug Store",
    "Latitude":9.5953465,
    "Longitude":41.8725158
  },
  {
    "Name":"Alhakim Drug Store",
    "Latitude":9.2240705,
    "Longitude":42.3361704
  },
  {
    "Name":"Alhamdulilaah Drug Store",
    "Latitude":9.357133,
    "Longitude":42.7821213
  },
  {
    "Name":"Alharamayn Drug Store",
    "Latitude":9.1555431,
    "Longitude":43.3571639
  },
  {
    "Name":"Alharamayn Drug Store",
    "Latitude":9.363908,
    "Longitude":42.7938985
  },
  {
    "Name":"Al-hayat Drug Store",
    "Latitude":9.3634907,
    "Longitude":42.8028467
  },
  {
    "Name":"Alhidaya Drug Store",
    "Latitude":9.3515621,
    "Longitude":42.7814622
  },
  {
    "Name":"Alhuda Drug Store",
    "Latitude":5.5903286,
    "Longitude":44.2051942
  },
  {
    "Name":"Ali Bira Pharmacy",
    "Latitude":9.6124414,
    "Longitude":41.836216
  },
  {
    "Name":"Ali Drug Store",
    "Latitude":11.4087063,
    "Longitude":40.756335
  },
  {
    "Name":"Ali Drug Store",
    "Latitude":11.0915482,
    "Longitude":39.7378858
  },
  {
    "Name":"Ali Drug Store",
    "Latitude":11.4861178,
    "Longitude":37.5814684
  },
  {
    "Name":"Ali Drug Store",
    "Latitude":10.7145845,
    "Longitude":39.8680543
  },
  {
    "Name":"Ali Drug Store",
    "Latitude":10.5537222,
    "Longitude":39.9348207
  },
  {
    "Name":"Ali Hussen Drug Store",
    "Latitude":10.7025329,
    "Longitude":39.2690716
  },
  {
    "Name":"Ali Parmacy",
    "Latitude":11.1267707,
    "Longitude":39.6348647
  },
  {
    "Name":"Ali Tegegne Drug Store",
    "Latitude":11.2344228,
    "Longitude":39.0634402
  },
  {
    "Name":"Alia Drug Store",
    "Latitude":9.3372779,
    "Longitude":42.7927526
  },
  {
    "Name":"Aliazar Drug Store",
    "Latitude":7.5461769,
    "Longitude":37.8507093
  },
  {
    "Name":"Alif Drug",
    "Latitude":8.9518457,
    "Longitude":38.7890085
  },
  {
    "Name":"Alif Drug  store",
    "Latitude":8.4518141,
    "Longitude":36.3425258
  },
  {
    "Name":"Alif Drug Store",
    "Latitude":11.7282822,
    "Longitude":40.9823441
  },
  {
    "Name":"Alif Drug Store",
    "Latitude":8.2943739,
    "Longitude":35.5840728
  },
  {
    "Name":"Alif Drug store",
    "Latitude":7.3138231,
    "Longitude":38.0929865
  },
  {
    "Name":"Alif Drug Store",
    "Latitude":7.7912695,
    "Longitude":38.2436756
  },
  {
    "Name":"Alif Drug Store",
    "Latitude":8.8767727,
    "Longitude":38.7757448
  },
  {
    "Name":"Alif Drug Store",
    "Latitude":8.9798658,
    "Longitude":38.6858434
  },
  {
    "Name":"Alif Drug store",
    "Latitude":9.5996588,
    "Longitude":41.8359954
  },
  {
    "Name":"Alif Drug Store",
    "Latitude":7.0371695,
    "Longitude":38.3584651
  },
  {
    "Name":"Alif Pharmacy",
    "Latitude":9.0024037,
    "Longitude":38.6986807
  },
  {
    "Name":"Alifa Drug Store",
    "Latitude":11.1312824,
    "Longitude":39.6328041
  },
  {
    "Name":"Alife pharmacy",
    "Latitude":11.0723384,
    "Longitude":37.8833356
  },
  {
    "Name":"Alin Drug Store",
    "Latitude":9.3595522,
    "Longitude":42.783429
  },
  {
    "Name":"Alin Drug Store",
    "Latitude":8.2238225,
    "Longitude":43.5614004
  },
  {
    "Name":"Alisam  Drug Store",
    "Latitude":13.5099452,
    "Longitude":39.4587839
  },
  {
    "Name":"Alishufa Pharmacy",
    "Latitude":11.7365816,
    "Longitude":41.0825757
  },
  {
    "Name":"Aliyare Drug Store",
    "Latitude":9.3774871,
    "Longitude":42.767402
  },
  {
    "Name":"Aliyas Drug Store",
    "Latitude":11.7846533,
    "Longitude":37.5617647
  },
  {
    "Name":"Aliye Pharmacy",
    "Latitude":9.999863567,
    "Longitude":39.89787098
  },
  {
    "Name":"Aliyu Drug Store",
    "Latitude":11.6593684,
    "Longitude":39.6587985
  },
  {
    "Name":"Aljazira Drug Store",
    "Latitude":9.3511795,
    "Longitude":42.7983994
  },
  {
    "Name":"Aljazira Drug Store",
    "Latitude":9.3516428,
    "Longitude":42.7873536
  },
  {
    "Name":"All Amin Drug Store",
    "Latitude":9.3612453,
    "Longitude":42.800515
  },
  {
    "Name":"All Amin Drug Store",
    "Latitude":9.5965848,
    "Longitude":43.332508
  },
  {
    "Name":"All Haramain Drug Store",
    "Latitude":9.3514239,
    "Longitude":42.7879791
  },
  {
    "Name":"All Najih Drug Store",
    "Latitude":9.7853629,
    "Longitude":43.2231481
  },
  {
    "Name":"Alla Aamin Drug Store",
    "Latitude":9.3486174,
    "Longitude":42.7994046
  },
  {
    "Name":"Alla Amin Drug Store",
    "Latitude":9.3489338,
    "Longitude":42.793951
  },
  {
    "Name":"Alla Wakiil Drug Shop",
    "Latitude":9.3944635,
    "Longitude":42.8216295
  },
  {
    "Name":"Alla-Amin Drug Store",
    "Latitude":9.8279628,
    "Longitude":43.0318502
  },
  {
    "Name":"Alla-Amin Drug Store",
    "Latitude":6.7355918,
    "Longitude":44.2771894
  },
  {
    "Name":"Alla-Amin Drug Store",
    "Latitude":5.5913464,
    "Longitude":44.2035946
  },
  {
    "Name":"Allamagan Drug Store",
    "Latitude":9.3587727,
    "Longitude":42.8004118
  },
  {
    "Name":"Alliance Drug Store",
    "Latitude":10.061525,
    "Longitude":34.5402467
  },
  {
    "Name":"Alliance Pharmacy",
    "Latitude":9.0347382,
    "Longitude":38.8766755
  },
  {
    "Name":"Almadina Drug Shop",
    "Latitude":8.1384323,
    "Longitude":42.2990429
  },
  {
    "Name":"Almaki Drug Store",
    "Latitude":9.3534712,
    "Longitude":42.7853867
  },
  {
    "Name":"Almansur Drug Store",
    "Latitude":9.3570682,
    "Longitude":42.7821488
  },
  {
    "Name":"Almaz Drug Store",
    "Latitude":13.5002845,
    "Longitude":39.4553273
  },
  {
    "Name":"Almaz drug store",
    "Latitude":11.1273009,
    "Longitude":39.2265947
  },
  {
    "Name":"Almaz Drug Store",
    "Latitude":8.5891716,
    "Longitude":39.1195549
  },
  {
    "Name":"Almaz Drug Store",
    "Latitude":6.8605886,
    "Longitude":37.7690779
  },
  {
    "Name":"Almaze drug stor",
    "Latitude":11.258107,
    "Longitude":36.8465953
  },
  {
    "Name":"alnasri Drug Store",
    "Latitude":9.3711726,
    "Longitude":42.804436
  },
  {
    "Name":"Alnur Drug Shop",
    "Latitude":9.364811,
    "Longitude":42.7901697
  },
  {
    "Name":"Al-Nusran Drug Store",
    "Latitude":9.3567148,
    "Longitude":42.7697614
  },
  {
    "Name":"Alora drug store",
    "Latitude":5.919027,
    "Longitude":37.3018492
  },
  {
    "Name":"Alpha Drug shop",
    "Latitude":13.00948,
    "Longitude":39.3434274
  },
  {
    "Name":"Alpha Drug Store",
    "Latitude":3.5418289,
    "Longitude":39.0489587
  },
  {
    "Name":"Alpha Drug Store",
    "Latitude":7.5524944,
    "Longitude":37.8461457
  },
  {
    "Name":"Alpha Drug Store",
    "Latitude":6.7258226,
    "Longitude":37.5582135
  },
  {
    "Name":"Alpha Drug Store 2",
    "Latitude":6.7263816,
    "Longitude":37.5611588
  },
  {
    "Name":"Alpha Pharmacy",
    "Latitude":9.0052111,
    "Longitude":38.6725181
  },
  {
    "Name":"Alpha pharmacy",
    "Latitude":9.0607691,
    "Longitude":38.7358812
  },
  {
    "Name":"Alpha Pharmacy",
    "Latitude":9.0137959,
    "Longitude":38.8320552
  },
  {
    "Name":"Alpha Pharmacy",
    "Latitude":7.049178,
    "Longitude":38.4741275
  },
  {
    "Name":"Al-Qaud Drug Store",
    "Latitude":9.4323293,
    "Longitude":42.1186515
  },
  {
    "Name":"Al-qudus Pharmacy",
    "Latitude":9.3541409,
    "Longitude":42.7848201
  },
  {
    "Name":"Alrahma Drug Store",
    "Latitude":5.9534983,
    "Longitude":43.554595
  },
  {
    "Name":"Al-Rahma Drug Store",
    "Latitude":8.2206029,
    "Longitude":43.560877
  },
  {
    "Name":"Al-Riyan Drug Store",
    "Latitude":9.3483183,
    "Longitude":42.8380894
  },
  {
    "Name":"Alsa Drug  Stor",
    "Latitude":11.566877,
    "Longitude":36.4938135
  },
  {
    "Name":"Alsa Drug Store",
    "Latitude":14.1215536,
    "Longitude":38.7283039
  },
  {
    "Name":"Alsalam Drug Store",
    "Latitude":9.3513596,
    "Longitude":42.7809684
  },
  {
    "Name":"Alsen Drug Store",
    "Latitude":8.5040278,
    "Longitude":39.2858047
  },
  {
    "Name":"Alsen Pharmcy",
    "Latitude":8.9446812,
    "Longitude":38.7497678
  },
  {
    "Name":"Alshaday drug shop",
    "Latitude":13.5266907,
    "Longitude":39.4460598
  },
  {
    "Name":"Alshafi Drug Store",
    "Latitude":5.5905685,
    "Longitude":44.2051851
  },
  {
    "Name":"Al-Sheikh Drug Store",
    "Latitude":9.352699,
    "Longitude":42.7878981
  },
  {
    "Name":"Al-shems kenya Drug Store",
    "Latitude":9.0411259,
    "Longitude":38.6222658
  },
  {
    "Name":"Alshmese Drug Store",
    "Latitude":6.4141067,
    "Longitude":38.3111917
  },
  {
    "Name":"Alson Monet Drug Store",
    "Latitude":8.9766797,
    "Longitude":37.8804512
  },
  {
    "Name":"Altaseb Drug Store",
    "Latitude":11.091383,
    "Longitude":39.7380188
  },
  {
    "Name":"Alula Drug Stor",
    "Latitude":14.2885983,
    "Longitude":39.4656864
  },
  {
    "Name":"Alula Feked  Pharmacy",
    "Latitude":9.0041373,
    "Longitude":38.6866573
  },
  {
    "Name":"Alula Pharmacy",
    "Latitude":13.8797387,
    "Longitude":39.7411011
  },
  {
    "Name":"Amad Parmacy",
    "Latitude":8.9972277,
    "Longitude":38.7304233
  },
  {
    "Name":"Amado Drug Store",
    "Latitude":6.7249131,
    "Longitude":37.557077
  },
  {
    "Name":"Amado No.2 Drug Store",
    "Latitude":6.8537326,
    "Longitude":37.7623253
  },
  {
    "Name":"Amago Pharmacy",
    "Latitude":9.0115416,
    "Longitude":38.7879253
  },
  {
    "Name":"Amaha Drug Store",
    "Latitude":8.5205902,
    "Longitude":39.2656251
  },
  {
    "Name":"Amal Drug Store",
    "Latitude":9.3645217,
    "Longitude":42.79007
  },
  {
    "Name":"Amal Pharmacy",
    "Latitude":5.2151242,
    "Longitude":39.9135986
  },
  {
    "Name":"Aman",
    "Latitude":13.534813,
    "Longitude":39.4961342
  },
  {
    "Name":"Aman Drug Store",
    "Latitude":11.3912703,
    "Longitude":40.7480635
  },
  {
    "Name":"Aman Drug Store",
    "Latitude":8.0253115,
    "Longitude":38.3283599
  },
  {
    "Name":"Aman Drug Store",
    "Latitude":6.9979947,
    "Longitude":35.5888663
  },
  {
    "Name":"Aman Drug Store",
    "Latitude":8.8854075,
    "Longitude":38.7814755
  },
  {
    "Name":"Aman Drug Store",
    "Latitude":8.9124663,
    "Longitude":38.8281729
  },
  {
    "Name":"Aman Drug Store",
    "Latitude":9.0128109,
    "Longitude":38.7524982
  },
  {
    "Name":"Aman farma drug store",
    "Latitude":7.8613967,
    "Longitude":38.424125
  },
  {
    "Name":"Aman Med",
    "Latitude":9.0114029,
    "Longitude":38.8358345
  },
  {
    "Name":"Aman Pharmacy",
    "Latitude":8.9957134,
    "Longitude":38.6707861
  },
  {
    "Name":"Aman Pharmacy",
    "Latitude":9.0437541,
    "Longitude":38.6985945
  },
  {
    "Name":"Amana Drug store",
    "Latitude":9.0373121,
    "Longitude":38.6189367
  },
  {
    "Name":"Amana-Alla Drug Store",
    "Latitude":9.3627006,
    "Longitude":42.794187
  },
  {
    "Name":"Amanda Drug Store",
    "Latitude":6.8309286,
    "Longitude":37.7541951
  },
  {
    "Name":"Amane Drug Store",
    "Latitude":9.5658609,
    "Longitude":39.7953702
  },
  {
    "Name":"Amane Druge Store",
    "Latitude":9.9559793,
    "Longitude":39.6302264
  },
  {
    "Name":"Amano Drug Store",
    "Latitude":9.5976604,
    "Longitude":43.3315285
  },
  {
    "Name":"Amanuael  Drug Store",
    "Latitude":8.9156056,
    "Longitude":39.3713412
  },
  {
    "Name":"Amanual Drug Store",
    "Latitude":10.0609923,
    "Longitude":38.9939251
  },
  {
    "Name":"Amanual Drug Store",
    "Latitude":8.28661131,
    "Longitude":37.77950727
  },
  {
    "Name":"Amanual Drug Store",
    "Latitude":6.46741595,
    "Longitude":36.58954512
  },
  {
    "Name":"Amanual Pharmacy",
    "Latitude":9.3122144,
    "Longitude":42.1159409
  },
  {
    "Name":"Amanuale Drug Store",
    "Latitude":9.1976282,
    "Longitude":39.7120631
  },
  {
    "Name":"Amanueal  Drug Store",
    "Latitude":12.4269079,
    "Longitude":37.332454
  },
  {
    "Name":"Amanuel  Drug Store",
    "Latitude":11.6848614,
    "Longitude":38.9181044
  },
  {
    "Name":"Amanuel  Pharmacy",
    "Latitude":14.397547,
    "Longitude":37.7736902
  },
  {
    "Name":"Amanuel Drug Store",
    "Latitude":13.7837925,
    "Longitude":36.929853
  },
  {
    "Name":"Amanuel Drug store",
    "Latitude":10.443537,
    "Longitude":37.8938236
  },
  {
    "Name":"Amanuel Drug Store",
    "Latitude":9.0972315,
    "Longitude":35.3978726
  },
  {
    "Name":"Amanuel Drug Store",
    "Latitude":9.5065903,
    "Longitude":35.4992224
  },
  {
    "Name":"Amanuel Drug Store",
    "Latitude":9.0882064,
    "Longitude":36.5458433
  },
  {
    "Name":"Amanuel Drug Store",
    "Latitude":8.0921498,
    "Longitude":36.948908
  },
  {
    "Name":"Amanuel Drug Store",
    "Latitude":8.1429383,
    "Longitude":38.8105
  },
  {
    "Name":"Amanuel Drug store",
    "Latitude":8.7453026,
    "Longitude":38.9627955
  },
  {
    "Name":"Amanuel Drug Store",
    "Latitude":8.408553,
    "Longitude":38.195145
  },
  {
    "Name":"Amanuel Drug store",
    "Latitude":8.4497637,
    "Longitude":36.3414122
  },
  {
    "Name":"Amanuel Drug Store",
    "Latitude":9.5717144,
    "Longitude":37.3628139
  },
  {
    "Name":"Amanuel Drug Store",
    "Latitude":9.0656891,
    "Longitude":38.6685003
  },
  {
    "Name":"Amanuel Drug store",
    "Latitude":8.9302463,
    "Longitude":38.6611187
  },
  {
    "Name":"Amanuel Drug Store",
    "Latitude":7.547065,
    "Longitude":37.8521405
  },
  {
    "Name":"Amanuel Drug Store",
    "Latitude":7.2449789,
    "Longitude":37.9008342
  },
  {
    "Name":"Amanuel DRUG store",
    "Latitude":5.9166134,
    "Longitude":38.24876
  },
  {
    "Name":"Amanuel Drug Store",
    "Latitude":6.8554768,
    "Longitude":37.7637249
  },
  {
    "Name":"Amanuel Drug Store",
    "Latitude":8.93283797,
    "Longitude":38.77195592
  },
  {
    "Name":"Amanuel Drug store",
    "Latitude":8.946575,
    "Longitude":38.743255
  },
  {
    "Name":"Amanuel Drug Store",
    "Latitude":6.486048,
    "Longitude":38.5252948
  },
  {
    "Name":"Amanuel Pharmacy",
    "Latitude":14.1644673,
    "Longitude":38.8976139
  },
  {
    "Name":"Amanuel Pharmacy",
    "Latitude":7.9283146,
    "Longitude":38.7148382
  },
  {
    "Name":"Amanuel Pharmacy",
    "Latitude":5.6351532,
    "Longitude":38.2383066
  },
  {
    "Name":"Amanuel Pharmacy",
    "Latitude":7.1973938,
    "Longitude":38.5983765
  },
  {
    "Name":"Amanuel Pharmacy",
    "Latitude":8.9569961,
    "Longitude":38.7656297
  },
  {
    "Name":"Amanuel Pharmacy",
    "Latitude":8.9756895,
    "Longitude":38.6829557
  },
  {
    "Name":"Amanuel Pharmacy",
    "Latitude":7.0414477,
    "Longitude":38.4794172
  },
  {
    "Name":"Amanuhel Drug store",
    "Latitude":9.5985183,
    "Longitude":37.8419433
  },
  {
    "Name":"Amar Drug Store",
    "Latitude":10.0650014,
    "Longitude":34.5388229
  },
  {
    "Name":"Amar Pharmacy",
    "Latitude":12.603361,
    "Longitude":37.4665781
  },
  {
    "Name":"Amar Pharmacy",
    "Latitude":8.9532562,
    "Longitude":38.6959405
  },
  {
    "Name":"Amare Drug Store",
    "Latitude":11.7210094,
    "Longitude":37.1104114
  },
  {
    "Name":"Amare Drug Store",
    "Latitude":10.6990041,
    "Longitude":37.1795732
  },
  {
    "Name":"Amare Drug Store",
    "Latitude":11.2511169,
    "Longitude":36.8448498
  },
  {
    "Name":"Amare drug store",
    "Latitude":11.2528217,
    "Longitude":36.8481936
  },
  {
    "Name":"Amare Drug Store",
    "Latitude":7.9566396,
    "Longitude":39.1309813
  },
  {
    "Name":"Amarech Drug STORE",
    "Latitude":12.7857784,
    "Longitude":36.4065249
  },
  {
    "Name":"Amari Number Two Pharmacy",
    "Latitude":9.0120007,
    "Longitude":38.7815971
  },
  {
    "Name":"Amaris Pharmacy",
    "Latitude":11.5891864,
    "Longitude":37.3750533
  },
  {
    "Name":"Amauel Pharmacy",
    "Latitude":9.0118009,
    "Longitude":38.7974986
  },
  {
    "Name":"Amaya Drug Store",
    "Latitude":8.8146022,
    "Longitude":40.5213293
  },
  {
    "Name":"Amaya Pharmacy",
    "Latitude":9.0211206,
    "Longitude":38.6826198
  },
  {
    "Name":"Amazol Drug Store",
    "Latitude":8.8947884,
    "Longitude":38.8049344
  },
  {
    "Name":"Amazon Drug Store",
    "Latitude":11.0806206,
    "Longitude":39.7397367
  },
  {
    "Name":"Amazon pharmacy",
    "Latitude":13.4965005,
    "Longitude":39.4743442
  },
  {
    "Name":"Amazon Pharmacy",
    "Latitude":8.5423929,
    "Longitude":39.2650793
  },
  {
    "Name":"Amazone Drug Store",
    "Latitude":10.4220232,
    "Longitude":39.2549207
  },
  {
    "Name":"Amazone Drug Store",
    "Latitude":7.1011816,
    "Longitude":39.193824
  },
  {
    "Name":"Amazone drug store",
    "Latitude":6.0069514,
    "Longitude":37.5486906
  },
  {
    "Name":"Amba Drug Store",
    "Latitude":7.547568,
    "Longitude":37.848386
  },
  {
    "Name":"Amba Pharmacy",
    "Latitude":11.6042881,
    "Longitude":37.3701433
  },
  {
    "Name":"Ambassador pharmacy",
    "Latitude":13.5079017,
    "Longitude":39.4686008
  },
  {
    "Name":"Ambaye Drug Store",
    "Latitude":10.3372453,
    "Longitude":37.7299072
  },
  {
    "Name":"Ambese Drug Store",
    "Latitude":8.8761109,
    "Longitude":40.6862028
  },
  {
    "Name":"Ambo Drug Store",
    "Latitude":9.3586389,
    "Longitude":42.7816281
  },
  {
    "Name":"Ambo ko Pharmacy",
    "Latitude":8.9823357,
    "Longitude":37.8497305
  },
  {
    "Name":"Ambo Pharmacy",
    "Latitude":5.9494133,
    "Longitude":43.5506317
  },
  {
    "Name":"Ambuye Health Center Community Pharmacy",
    "Latitude":7.9758542,
    "Longitude":36.9018652
  },
  {
    "Name":"Ameda Drug Store",
    "Latitude":11.5150178,
    "Longitude":39.6097129
  },
  {
    "Name":"Ameen Drug Store",
    "Latitude":7.313116,
    "Longitude":38.092386
  },
  {
    "Name":"Ameko Pharmacy No 2",
    "Latitude":8.7494191,
    "Longitude":38.9846607
  },
  {
    "Name":"Amen Drug Shop",
    "Latitude":12.7987225,
    "Longitude":39.6441323
  },
  {
    "Name":"Amen Drug Store",
    "Latitude":13.8018838,
    "Longitude":38.2088485
  },
  {
    "Name":"Amen Drug Store",
    "Latitude":13.5268508,
    "Longitude":39.444464
  },
  {
    "Name":"Amen DRUG STORE",
    "Latitude":13.494466,
    "Longitude":39.4780153
  },
  {
    "Name":"Amen Drug Store",
    "Latitude":13.1566278,
    "Longitude":37.8981403
  },
  {
    "Name":"Amen Drug Store",
    "Latitude":11.8305463,
    "Longitude":39.5954337
  },
  {
    "Name":"Amen Drug store",
    "Latitude":8.2986302,
    "Longitude":35.5813995
  },
  {
    "Name":"Amen Drug Store",
    "Latitude":8.9781764,
    "Longitude":37.8518785
  },
  {
    "Name":"Amen Drug store",
    "Latitude":8.7634499,
    "Longitude":38.955002
  },
  {
    "Name":"Amen Drug Store",
    "Latitude":8.5431221,
    "Longitude":39.2793147
  },
  {
    "Name":"Amen Drug Store",
    "Latitude":7.9571694,
    "Longitude":39.132253
  },
  {
    "Name":"Amen Drug Store",
    "Latitude":9.2294383,
    "Longitude":42.3278715
  },
  {
    "Name":"Amen Drug Store",
    "Latitude":9.3297573,
    "Longitude":41.4460788
  },
  {
    "Name":"Amen Drug Store",
    "Latitude":7.1146551,
    "Longitude":40.0024881
  },
  {
    "Name":"Amen Drug Store",
    "Latitude":8.3536229,
    "Longitude":37.794268
  },
  {
    "Name":"Amen Drug Store",
    "Latitude":5.3298414,
    "Longitude":39.5793381
  },
  {
    "Name":"Amen Drug Store",
    "Latitude":5.868221667,
    "Longitude":38.57975167
  },
  {
    "Name":"Amen Drug Store",
    "Latitude":5.6429415,
    "Longitude":38.2379162
  },
  {
    "Name":"Amen Drug Store",
    "Latitude":7.2019845,
    "Longitude":38.6111761
  },
  {
    "Name":"Amen Drug Store",
    "Latitude":7.1888196,
    "Longitude":38.5807243
  },
  {
    "Name":"Amen Drug Store",
    "Latitude":9.0647071,
    "Longitude":38.607033
  },
  {
    "Name":"Amen Drug Store",
    "Latitude":10.0596882,
    "Longitude":34.5434156
  },
  {
    "Name":"Amen Drug Store",
    "Latitude":7.5320197,
    "Longitude":37.8604086
  },
  {
    "Name":"Amen Drug Store",
    "Latitude":6.8405563,
    "Longitude":37.7585451
  },
  {
    "Name":"Amen drug store",
    "Latitude":6.0350219,
    "Longitude":37.5536147
  },
  {
    "Name":"Amen Drug Store",
    "Latitude":5.5870874,
    "Longitude":37.5469932
  },
  {
    "Name":"Amen Drug Store",
    "Latitude":5.4841652,
    "Longitude":37.8630591
  },
  {
    "Name":"Amen Drug Store",
    "Latitude":6.8861143,
    "Longitude":35.7407192
  },
  {
    "Name":"Amen Drug Store",
    "Latitude":6.9546084,
    "Longitude":35.5507735
  },
  {
    "Name":"Amen Drug store",
    "Latitude":8.9721792,
    "Longitude":38.6651548
  },
  {
    "Name":"Amen Drug store",
    "Latitude":9.6114832,
    "Longitude":41.8357255
  },
  {
    "Name":"Amen Druge Stor",
    "Latitude":8.9296718,
    "Longitude":39.4262458
  },
  {
    "Name":"Amen Drugstore",
    "Latitude":8.0036477,
    "Longitude":36.490197
  },
  {
    "Name":"Amen Ha Pharmacy",
    "Latitude":11.592761,
    "Longitude":37.3906596
  },
  {
    "Name":"Amen Number 2 Drug Store",
    "Latitude":7.5170472,
    "Longitude":37.8720182
  },
  {
    "Name":"Amen Pharmacy",
    "Latitude":13.4781868,
    "Longitude":39.4593872
  },
  {
    "Name":"Amen Pharmacy",
    "Latitude":9.5676696,
    "Longitude":37.1017086
  },
  {
    "Name":"Amen Pharmacy",
    "Latitude":6.855749,
    "Longitude":37.7600335
  },
  {
    "Name":"Amen Pharmacy",
    "Latitude":9.3155281,
    "Longitude":42.1310726
  },
  {
    "Name":"Amen Pharmacy",
    "Latitude":8.9890164,
    "Longitude":38.8292948
  },
  {
    "Name":"Amen Pharmacy",
    "Latitude":9.0112408,
    "Longitude":38.737175
  },
  {
    "Name":"Amen Pharmacy",
    "Latitude":9.0203557,
    "Longitude":38.8587786
  },
  {
    "Name":"Amen Pharmacy",
    "Latitude":7.0318885,
    "Longitude":38.4967245
  },
  {
    "Name":"Amen Pharmacy",
    "Latitude":6.7479432,
    "Longitude":38.4085584
  },
  {
    "Name":"Amenti Pharmacy",
    "Latitude":8.9696524,
    "Longitude":38.7228211
  },
  {
    "Name":"Amenu Drug Store",
    "Latitude":8.9298012,
    "Longitude":39.426242
  },
  {
    "Name":"Amerti Drug Store",
    "Latitude":9.0611377,
    "Longitude":38.6077486
  },
  {
    "Name":"Amerya Drug Store",
    "Latitude":8.0650267,
    "Longitude":38.4730411
  },
  {
    "Name":"Ameya Drug Store",
    "Latitude":8.8145931,
    "Longitude":40.5212357
  },
  {
    "Name":"Ameya Pharmacy",
    "Latitude":8.956078,
    "Longitude":38.6979791
  },
  {
    "Name":"Ameya Primary Hospital Community Pharmacy",
    "Latitude":8.5956058,
    "Longitude":37.7561561
  },
  {
    "Name":"Amhara Police College Drug Store",
    "Latitude":10.3279285,
    "Longitude":37.7204789
  },
  {
    "Name":"Ami Pharmacy",
    "Latitude":8.5457906,
    "Longitude":39.2734431
  },
  {
    "Name":"Ami Pharmacy",
    "Latitude":9.0364523,
    "Longitude":38.8351839
  },
  {
    "Name":"Amibaricho Drug Store",
    "Latitude":7.3438691,
    "Longitude":37.860912
  },
  {
    "Name":"Amin Drug store",
    "Latitude":8.3702283,
    "Longitude":36.2465117
  },
  {
    "Name":"Amin Drug Store",
    "Latitude":8.2220581,
    "Longitude":43.5586876
  },
  {
    "Name":"Amin Drug Store",
    "Latitude":4.1824863,
    "Longitude":42.056854
  },
  {
    "Name":"Amin Pharamacy",
    "Latitude":10.7112661,
    "Longitude":39.8788462
  },
  {
    "Name":"Amin Pharmacy",
    "Latitude":9.3595777,
    "Longitude":42.8006678
  },
  {
    "Name":"Amin Rural Drug Vender",
    "Latitude":4.6377585,
    "Longitude":42.6126832
  },
  {
    "Name":"Amina Pharmacy",
    "Latitude":9.3110163,
    "Longitude":42.1271072
  },
  {
    "Name":"Aminat Drug Store",
    "Latitude":11.2356753,
    "Longitude":39.0622025
  },
  {
    "Name":"Amineal Drug Store",
    "Latitude":10.6992389,
    "Longitude":39.7821057
  },
  {
    "Name":"Amir Drug Store",
    "Latitude":11.0847165,
    "Longitude":39.7394444
  },
  {
    "Name":"Amir Drug Store",
    "Latitude":10.7804837,
    "Longitude":39.7761334
  },
  {
    "Name":"Amir Drug Store",
    "Latitude":7.8540619,
    "Longitude":38.182705
  },
  {
    "Name":"Amir Drugstore",
    "Latitude":7.7114482,
    "Longitude":36.9805895
  },
  {
    "Name":"Amira Drug Store",
    "Latitude":9.3702659,
    "Longitude":42.7739104
  },
  {
    "Name":"Amira Rural Drug Vender",
    "Latitude":6.7420222,
    "Longitude":44.2774253
  },
  {
    "Name":"Amiro drug store",
    "Latitude":10.5833087,
    "Longitude":36.7422358
  },
  {
    "Name":"Amiron drug store",
    "Latitude":7.3570457,
    "Longitude":38.6707694
  },
  {
    "Name":"Amisalu Drug Store",
    "Latitude":10.640926,
    "Longitude":36.942526
  },
  {
    "Name":"Amnen Drug Store",
    "Latitude":7.551805,
    "Longitude":37.84533
  },
  {
    "Name":"Amogne Drug  Stor",
    "Latitude":11.2564204,
    "Longitude":36.8450592
  },
  {
    "Name":"Amsale Pharmacy",
    "Latitude":12.6011546,
    "Longitude":37.4663055
  },
  {
    "Name":"Amulali Pharmacy",
    "Latitude":8.551231,
    "Longitude":39.2775105
  },
  {
    "Name":"Amuma Gute Health Center Community Pharmacy",
    "Latitude":9.5632047,
    "Longitude":35.4165797
  },
  {
    "Name":"Ana drug shop",
    "Latitude":12.8019813,
    "Longitude":39.6454572
  },
  {
    "Name":"Ana drug store",
    "Latitude":8.7941495,
    "Longitude":38.9003776
  },
  {
    "Name":"Ana Drug Store",
    "Latitude":8.5458911,
    "Longitude":39.2789158
  },
  {
    "Name":"Ana Drug Store",
    "Latitude":8.8944787,
    "Longitude":38.8305693
  },
  {
    "Name":"Ana Pharmacy",
    "Latitude":8.5677584,
    "Longitude":39.2652865
  },
  {
    "Name":"Anaf Drug store",
    "Latitude":8.7477747,
    "Longitude":38.9826755
  },
  {
    "Name":"Anafbeki Pharmacy",
    "Latitude":8.5428873,
    "Longitude":39.2787014
  },
  {
    "Name":"Anama Pharmacy",
    "Latitude":8.9839695,
    "Longitude":38.7089866
  },
  {
    "Name":"Anan Drug Store",
    "Latitude":8.2986246,
    "Longitude":35.5813952
  },
  {
    "Name":"Anane Drug Store",
    "Latitude":9.6142247,
    "Longitude":37.982768
  },
  {
    "Name":"Anania Pharmacy",
    "Latitude":8.95011,
    "Longitude":38.7200742
  },
  {
    "Name":"Ananiya Drug Store",
    "Latitude":8.5030805,
    "Longitude":39.2839721
  },
  {
    "Name":"Ananiya Drug Store",
    "Latitude":9.0570858,
    "Longitude":38.611038
  },
  {
    "Name":"Ananiya Drug Store",
    "Latitude":7.27669587,
    "Longitude":35.77407048
  },
  {
    "Name":"Ananiya Kuter Hulte Pharmacy",
    "Latitude":8.9496573,
    "Longitude":38.7192169
  },
  {
    "Name":"Anas Drug store",
    "Latitude":9.3528176,
    "Longitude":42.7849132
  },
  {
    "Name":"Anbesa Drug Shop",
    "Latitude":12.7982808,
    "Longitude":39.6444799
  },
  {
    "Name":"Anbesa Drug Store",
    "Latitude":11.3128885,
    "Longitude":39.6792779
  },
  {
    "Name":"Anbesa Drug Store",
    "Latitude":7.8558727,
    "Longitude":36.585644
  },
  {
    "Name":"Anbesa Drug store",
    "Latitude":9.0075469,
    "Longitude":38.8046355
  },
  {
    "Name":"Anbesa Druge Store",
    "Latitude":8.9806478,
    "Longitude":38.8860865
  },
  {
    "Name":"Anbesa Pharmacy",
    "Latitude":9.0290015,
    "Longitude":38.751887
  },
  {
    "Name":"Anbessa Pharmacy",
    "Latitude":7.8635499,
    "Longitude":39.6302577
  },
  {
    "Name":"Anbo Drug store",
    "Latitude":9.3708917,
    "Longitude":42.7734517
  },
  {
    "Name":"Anbsse Pharmcy",
    "Latitude":11.5936768,
    "Longitude":37.3748103
  },
  {
    "Name":"Andenet Drug Store",
    "Latitude":10.4585309,
    "Longitude":34.3947764
  },
  {
    "Name":"Andhufo Drug Store",
    "Latitude":10.4238309,
    "Longitude":42.2346748
  },
  {
    "Name":"Andimery Pharmacy",
    "Latitude":8.89558835,
    "Longitude":38.77607969
  },
  {
    "Name":"Andinet Drug Store",
    "Latitude":12.12315,
    "Longitude":38.0496491
  },
  {
    "Name":"Andinet druge store",
    "Latitude":12.4118949,
    "Longitude":38.0848467
  },
  {
    "Name":"Andinet Pharmacy",
    "Latitude":9.5857093,
    "Longitude":41.8594372
  },
  {
    "Name":"Andnet drug stor",
    "Latitude":7.74361,
    "Longitude":35.4756692
  },
  {
    "Name":"Andnet Pharmacy",
    "Latitude":11.0848029,
    "Longitude":39.7382159
  },
  {
    "Name":"Andu Drug Store",
    "Latitude":8.5533663,
    "Longitude":39.2783179
  },
  {
    "Name":"Andu, Pharmacy",
    "Latitude":11.5887333,
    "Longitude":37.3881052
  },
  {
    "Name":"Anena Drug Store",
    "Latitude":7.2065456,
    "Longitude":37.7779843
  },
  {
    "Name":"Anerma Drug Store",
    "Latitude":9.3106735,
    "Longitude":42.1384765
  },
  {
    "Name":"Anfa Drug Stor",
    "Latitude":9.3633612,
    "Longitude":42.7937846
  },
  {
    "Name":"Anfac Drug Store",
    "Latitude":9.3477061,
    "Longitude":42.7978833
  },
  {
    "Name":"Anfale Kola Health Center Community Pharmacy",
    "Latitude":6.2632183,
    "Longitude":38.48712
  },
  {
    "Name":"Anfo Drug Store",
    "Latitude":9.0057421,
    "Longitude":38.6730539
  },
  {
    "Name":"Angatu Drug Store",
    "Latitude":8.7476463,
    "Longitude":36.4984692
  },
  {
    "Name":"Angela Drug Store",
    "Latitude":7.1210554,
    "Longitude":37.399038
  },
  {
    "Name":"Anger Didessa Drug Store",
    "Latitude":9.3160435,
    "Longitude":36.3699915
  },
  {
    "Name":"Anger Gute Drug Store",
    "Latitude":9.5626117,
    "Longitude":36.6294933
  },
  {
    "Name":"Anger Gute Health Center Community Pharmacy",
    "Latitude":9.5600517,
    "Longitude":36.6291828
  },
  {
    "Name":"Angerbe Drug Store",
    "Latitude":13.466997,
    "Longitude":36.4835753
  },
  {
    "Name":"Aniley Drug Store",
    "Latitude":11.2650829,
    "Longitude":37.4884656
  },
  {
    "Name":"Animaw Andualem Drug store",
    "Latitude":11.3554365,
    "Longitude":36.9551302
  },
  {
    "Name":"Anissa Drug Store",
    "Latitude":11.1481736,
    "Longitude":39.6281427
  },
  {
    "Name":"Anjelo Drug Store",
    "Latitude":9.3483139,
    "Longitude":42.7995394
  },
  {
    "Name":"Anlay Drug Store",
    "Latitude":12.1230934,
    "Longitude":38.0458933
  },
  {
    "Name":"Anmut Drug  Stor",
    "Latitude":11.0783932,
    "Longitude":36.8864544
  },
  {
    "Name":"Ano Health Center Community Pharmacy",
    "Latitude":9.0951726,
    "Longitude":36.9565883
  },
  {
    "Name":"Anole Drug Store",
    "Latitude":8.1424473,
    "Longitude":39.231815
  },
  {
    "Name":"Anole Health Center Community Pharmacy",
    "Latitude":8.5392636,
    "Longitude":39.2775106
  },
  {
    "Name":"Ansan Drug Store",
    "Latitude":9.8030558,
    "Longitude":38.4214397
  },
  {
    "Name":"Ansi Drug Store",
    "Latitude":7.1868914,
    "Longitude":38.5824463
  },
  {
    "Name":"Ansif Drug Shop",
    "Latitude":9.3572133,
    "Longitude":42.1096294
  },
  {
    "Name":"Ansuar Drug Store",
    "Latitude":11.096745,
    "Longitude":39.600684
  },
  {
    "Name":"Anteneh Drug Store",
    "Latitude":10.5925248,
    "Longitude":38.7603058
  },
  {
    "Name":"Anteneh drug store",
    "Latitude":10.927167,
    "Longitude":38.0894087
  },
  {
    "Name":"Anteneh Drug Store",
    "Latitude":11.0865398,
    "Longitude":36.8890063
  },
  {
    "Name":"Anteneh Drug store",
    "Latitude":7.8629017,
    "Longitude":39.6304754
  },
  {
    "Name":"Anti Drug store",
    "Latitude":9.0226738,
    "Longitude":38.6740533
  },
  {
    "Name":"Antsokia Pharmacy",
    "Latitude":10.6981326,
    "Longitude":39.7836461
  },
  {
    "Name":"Antstoki Drug Store",
    "Latitude":9.6733784,
    "Longitude":39.5318887
  },
  {
    "Name":"Anu Drug Store",
    "Latitude":13.5096553,
    "Longitude":39.4559668
  },
  {
    "Name":"Anufe Drug Store",
    "Latitude":8.8684163,
    "Longitude":38.8077936
  },
  {
    "Name":"Anur Drug Shop",
    "Latitude":9.3021604,
    "Longitude":42.1247663
  },
  {
    "Name":"Anush Drug Store",
    "Latitude":9.4398892,
    "Longitude":42.1220868
  },
  {
    "Name":"Anuwar Drug STore",
    "Latitude":7.9605418,
    "Longitude":39.1322765
  },
  {
    "Name":"Anwar Drug Store",
    "Latitude":11.266025,
    "Longitude":39.5494861
  },
  {
    "Name":"Anwar Drug Store",
    "Latitude":11.2347096,
    "Longitude":39.0626637
  },
  {
    "Name":"Anwar Drug Store",
    "Latitude":8.9911955,
    "Longitude":38.8298599
  },
  {
    "Name":"Anwar Hussen Drug store",
    "Latitude":10.8272213,
    "Longitude":39.4677624
  },
  {
    "Name":"Apartama Pharmacy",
    "Latitude":9.0112505,
    "Longitude":38.7199915
  },
  {
    "Name":"Ape Drug Store",
    "Latitude":6.8687719,
    "Longitude":37.7545313
  },
  {
    "Name":"Appel Pharmacy",
    "Latitude":8.9504048,
    "Longitude":38.7446033
  },
  {
    "Name":"Apple Pharmacy",
    "Latitude":9.0674574,
    "Longitude":38.6650617
  },
  {
    "Name":"Apple pharmacy",
    "Latitude":9.0422031,
    "Longitude":38.7119612
  },
  {
    "Name":"Aqsa Drug Store",
    "Latitude":10.4582646,
    "Longitude":34.394795
  },
  {
    "Name":"Aqsa Drug Store",
    "Latitude":9.003624,
    "Longitude":38.6909136
  },
  {
    "Name":"Aqsa Pharmacy",
    "Latitude":7.2013639,
    "Longitude":38.6126556
  },
  {
    "Name":"Arabesa Pharmacy",
    "Latitude":8.9744999,
    "Longitude":38.8917026
  },
  {
    "Name":"Arabsa Pharmacy",
    "Latitude":8.9744281,
    "Longitude":38.8917703
  },
  {
    "Name":"Arada Drug store",
    "Latitude":8.1176893,
    "Longitude":38.3769346
  },
  {
    "Name":"Arada Pharmacy",
    "Latitude":9.0388259,
    "Longitude":38.7517325
  },
  {
    "Name":"Aragure Drug stor",
    "Latitude":13.510517,
    "Longitude":39.6854613
  },
  {
    "Name":"Aramo catholic church Drug store",
    "Latitude":6.1993044,
    "Longitude":38.2265593
  },
  {
    "Name":"Arara Drug Store",
    "Latitude":9.2673649,
    "Longitude":38.0804999
  },
  {
    "Name":"Ararat Drug Store",
    "Latitude":11.568358,
    "Longitude":37.364232
  },
  {
    "Name":"Ararat Pharmacy 1",
    "Latitude":11.6035092,
    "Longitude":37.3633638
  },
  {
    "Name":"Ararso Drug Store",
    "Latitude":8.7512455,
    "Longitude":43.3703193
  },
  {
    "Name":"Arategna Drug Store",
    "Latitude":9.3063636,
    "Longitude":42.1055719
  },
  {
    "Name":"Araya Drug store",
    "Latitude":14.0974902,
    "Longitude":39.2727154
  },
  {
    "Name":"Araya Drug Store",
    "Latitude":6.9774844,
    "Longitude":39.1795628
  },
  {
    "Name":"Arba Bordode Health Center Community Pharmacy",
    "Latitude":9.0144731,
    "Longitude":40.3866994
  },